{
"RECORDS":[
{
"bid":1,
"title":"自行车租赁点",
"addr":"武林广场北",
"longitude":120.15808805,
"latitude":30.27542080
},
{
"bid":2,
"title":"自行车租赁点(古河巷)",
"addr":"古河巷",
"longitude":120.15130012,
"latitude":30.28803620
},
{
"bid":3,
"title":"自行车租赁点(屏风街一号2313)",
"addr":"中河北路85附近",
"longitude":120.16597704,
"latitude":30.26955709
},
{
"bid":4,
"title":"自行车租赁点(潮王路25号)",
"addr":"潮王路25号",
"longitude":120.16257895,
"latitude":30.29272539
},
{
"bid":5,
"title":"自行车租赁点(东晖路)",
"addr":"东晖路70附近",
"longitude":120.16639333,
"latitude":30.29300452
},
{
"bid":6,
"title":"自行车租赁点(龙游路)",
"addr":"环城西路30附近",
"longitude":120.15308828,
"latitude":30.26450867
},
{
"bid":7,
"title":"自行车租赁点(打铁关加油站)",
"addr":"东新路154号",
"longitude":120.17300119,
"latitude":30.29117412
},
{
"bid":8,
"title":"自行车租赁点(北山街)",
"addr":"北山街1附近",
"longitude":120.15188991,
"latitude":30.26319263
},
{
"bid":9,
"title":"自行车租赁点(仁谐路)",
"addr":"保俶路602附近",
"longitude":120.14797957,
"latitude":30.26472660
},
{
"bid":10,
"title":"自行车租赁点(宝石二路)",
"addr":"宝石二路1号-1附近",
"longitude":120.14302951,
"latitude":30.26757295
},
{
"bid":11,
"title":"自行车租赁点(湖滨路)",
"addr":"14中对面(凤起路南)",
"longitude":120.15415168,
"latitude":30.26094190
},
{
"bid":12,
"title":"自行车租赁点(庆春路)",
"addr":"庆春路304附近",
"longitude":120.15504230,
"latitude":30.26073754
},
{
"bid":13,
"title":"自行车租赁点(环城北路环城东路口)",
"addr":"永康巷附近",
"longitude":120.18060469,
"latitude":30.27733855
},
{
"bid":14,
"title":"自行车租赁点",
"addr":"西溪路",
"longitude":120.13623697,
"latitude":30.27243674
},
{
"bid":15,
"title":"自行车租赁点",
"addr":"机场路里街44附近",
"longitude":120.18551735,
"latitude":30.28238381
},
{
"bid":16,
"title":"自行车租赁点(平海路)",
"addr":"平海路7号附近",
"longitude":120.16597212,
"latitude":30.25636922
},
{
"bid":17,
"title":"自行车租赁点(大学路)",
"addr":"庆春路25号",
"longitude":120.17829640,
"latitude":30.26010191
},
{
"bid":18,
"title":"自行车租赁点(艮山支五路)",
"addr":"艮山支二路附近",
"longitude":120.18941619,
"latitude":30.28294648
},
{
"bid":19,
"title":"自行车租赁点(浣纱路)",
"addr":"浣纱路107附近",
"longitude":120.16160540,
"latitude":30.25255935
},
{
"bid":20,
"title":"自行车租赁点(艮山支二路)",
"addr":"闸弄口横路43附近",
"longitude":120.19027982,
"latitude":30.27988624
},
{
"bid":21,
"title":"自行车租赁点(解放路)",
"addr":"解放路153附近",
"longitude":120.16959022,
"latitude":30.25290031
},
{
"bid":22,
"title":"青园桥自行车租赁点",
"addr":"密渡桥路附近",
"longitude":120.15603269,
"latitude":30.27897867
},
{
"bid":23,
"title":"地铁西湖文化广场站B自行车租赁点",
"addr":"中山北路571号",
"longitude":120.16085681,
"latitude":30.28090940
},
{
"bid":24,
"title":"浙江交通集团自行车租赁点",
"addr":"文晖路305附近",
"longitude":120.15913452,
"latitude":30.28294900
},
{
"bid":25,
"title":"交警支队自行车租赁点",
"addr":"文晖路340附近",
"longitude":120.15854576,
"latitude":30.28313489
},
{
"bid":26,
"title":"西湖文化广场自行车租赁点",
"addr":"西湖文化广场",
"longitude":120.15907992,
"latitude":30.27626156
},
{
"bid":27,
"title":"白马大厦自行车租赁点",
"addr":"密渡桥路3附近",
"longitude":120.15443813,
"latitude":30.27755390
},
{
"bid":28,
"title":"武林广场自行车租赁点",
"addr":"武林广场28路北侧",
"longitude":120.16055731,
"latitude":30.27614831
},
{
"bid":29,
"title":"武林广场北自行车租赁点",
"addr":"武林广场站28路北侧",
"longitude":120.16069673,
"latitude":30.27617657
},
{
"bid":30,
"title":"中北桥下自行车租赁点",
"addr":"环城北路159附近",
"longitude":120.16207982,
"latitude":30.27648212
},
{
"bid":31,
"title":"华贸鞋城自行车租赁点",
"addr":"环城北路278附近",
"longitude":120.15569998,
"latitude":30.27571638
},
{
"bid":32,
"title":"环城北路191号自行车租赁点",
"addr":"环城北路191号",
"longitude":120.16127649,
"latitude":30.27573969
},
{
"bid":33,
"title":"环城北路288号自行车租赁点",
"addr":"环城北路288附近",
"longitude":120.15455062,
"latitude":30.27564829
},
{
"bid":34,
"title":"天水桥自行车租赁点",
"addr":"环城北路183附近",
"longitude":120.16249009,
"latitude":30.27589895
},
{
"bid":35,
"title":"省科协大楼前自行车租赁点",
"addr":"省科协大楼前",
"longitude":120.15947424,
"latitude":30.27442046
},
{
"bid":36,
"title":"大褚桥车站南自行车租赁点",
"addr":"武林广场东通道附近",
"longitude":120.15947225,
"latitude":30.27425348
},
{
"bid":37,
"title":"密度桥湖墅南路口自行车租赁点",
"addr":"密渡桥路35附近",
"longitude":120.15228887,
"latitude":30.27746303
},
{
"bid":38,
"title":"朝晖路口自行车租赁点",
"addr":"上塘路附近",
"longitude":120.16494703,
"latitude":30.28067609
},
{
"bid":39,
"title":"环城北路177号自行车租赁点",
"addr":"环城北路179号杭州电子科技大学夜大武林学区附近",
"longitude":120.16335166,
"latitude":30.27591456
},
{
"bid":40,
"title":"上塘路朝晖路口自行车租赁点",
"addr":"朝晖路195附近",
"longitude":120.16525205,
"latitude":30.27933679
},
{
"bid":41,
"title":"白鹿鞋城自行车租赁点",
"addr":"环城北路255附近",
"longitude":120.15394089,
"latitude":30.27502725
},
{
"bid":42,
"title":"半道红自行车租赁点",
"addr":"湖墅南路38附近",
"longitude":120.15118955,
"latitude":30.27919890
},
{
"bid":43,
"title":"湖墅南路11号自行车租赁点",
"addr":"湖墅南路11号",
"longitude":120.15166311,
"latitude":30.27690397
},
{
"bid":44,
"title":"市民公园自行车租赁点",
"addr":"环城北路308附近",
"longitude":120.15248358,
"latitude":30.27574955
},
{
"bid":45,
"title":"朝晖路上塘路口自行车租赁点",
"addr":"朝晖路2附近",
"longitude":120.16602531,
"latitude":30.28005318
},
{
"bid":46,
"title":"文晖路上塘路口自行车租赁点",
"addr":"文晖路204号附近",
"longitude":120.16399388,
"latitude":30.28427493
},
{
"bid":47,
"title":"湖墅南路69号自行车租赁点",
"addr":"湖墅南路36附近",
"longitude":120.15056370,
"latitude":30.27971174
},
{
"bid":48,
"title":"文晖路213号自行车租赁点",
"addr":"文晖路215附近",
"longitude":120.16492270,
"latitude":30.28377773
},
{
"bid":49,
"title":"杭州剧院自行车租赁点",
"addr":"体育场路370号附近",
"longitude":120.15729592,
"latitude":30.27282958
},
{
"bid":50,
"title":"朝晖三区自行车租赁点",
"addr":"河东路120附近",
"longitude":120.15798078,
"latitude":30.28677547
},
{
"bid":51,
"title":"体育场路三百七十自行车租赁点",
"addr":"体育场路335附近",
"longitude":120.15674429,
"latitude":30.27287157
},
{
"bid":52,
"title":"武林广场自行车租赁点",
"addr":"体育场路338号",
"longitude":120.16071206,
"latitude":30.27276992
},
{
"bid":53,
"title":"朝晖二区自行车租赁点",
"addr":"上塘路140附近",
"longitude":120.16354240,
"latitude":30.28592092
},
{
"bid":54,
"title":"文晖路南自行车租赁点",
"addr":"文晖路195附近",
"longitude":120.16616039,
"latitude":30.28388504
},
{
"bid":55,
"title":"上塘路一六九号自行车租赁点",
"addr":"上塘路185附近",
"longitude":120.16200873,
"latitude":30.28700793
},
{
"bid":56,
"title":"体育场路武林路口自行车租赁点",
"addr":"体育场路373附近",
"longitude":120.15374752,
"latitude":30.27269812
},
{
"bid":57,
"title":"万向公园自行车租赁点",
"addr":"体育场路422附近",
"longitude":120.15291406,
"latitude":30.27308857
},
{
"bid":58,
"title":"市府大楼自行车租赁点",
"addr":"环城北路312附近",
"longitude":120.15033441,
"latitude":30.27525376
},
{
"bid":59,
"title":"中河北路-五号自行车租赁点",
"addr":"中河北路109附近",
"longitude":120.16586832,
"latitude":30.27427244
},
{
"bid":60,
"title":"中河北路115号自行车租赁点",
"addr":"中河北路109附近",
"longitude":120.16595457,
"latitude":30.27433760
},
{
"bid":61,
"title":"朝晖公园自行车租赁点",
"addr":"上塘路175附近",
"longitude":120.16165762,
"latitude":30.28780119
},
{
"bid":62,
"title":"省人民医院自行车租赁点(上塘路)",
"addr":"上塘路164附近",
"longitude":120.16236674,
"latitude":30.28771653
},
{
"bid":63,
"title":"文晖路湖墅路西自行车租赁点",
"addr":"文晖路429附近",
"longitude":120.14828511,
"latitude":30.28052065
},
{
"bid":64,
"title":"朝晖路南自行车租赁点",
"addr":"朝晖路144附近",
"longitude":120.16846052,
"latitude":30.28081468
},
{
"bid":65,
"title":"文晖路183号自行车租赁点",
"addr":"寄到文晖路183号华信设计1(西二门)附近",
"longitude":120.16727270,
"latitude":30.28405812
},
{
"bid":66,
"title":"省人民医院2自行车租赁点",
"addr":"积公弄附近",
"longitude":120.16447410,
"latitude":30.28681757
},
{
"bid":67,
"title":"体育场路四百零九号自行车租赁点",
"addr":"体育场路409号",
"longitude":120.15193824,
"latitude":30.27289684
},
{
"bid":68,
"title":"武林门西自行车租赁点(环城西路)",
"addr":"环城西路87附近",
"longitude":120.14976684,
"latitude":30.27465282
},
{
"bid":69,
"title":"中河路长运路口自行车租赁点",
"addr":"天水巷18附近",
"longitude":120.16645108,
"latitude":30.27408056
},
{
"bid":70,
"title":"杭州日报自行车租赁点",
"addr":"中河北路99附近",
"longitude":120.16603689,
"latitude":30.27351383
},
{
"bid":71,
"title":"叶青兜路自行车租赁点",
"addr":"叶青兜路15号附近",
"longitude":120.14955335,
"latitude":30.28510441
},
{
"bid":72,
"title":"上塘路193号自行车租赁点",
"addr":"上塘路191附近",
"longitude":120.16090127,
"latitude":30.28891566
},
{
"bid":73,
"title":"朝晖二小区一幢自行车租赁点",
"addr":"文晖路138附近",
"longitude":120.16786041,
"latitude":30.28464216
},
{
"bid":74,
"title":"延安路526号自行车租赁点",
"addr":"延安路521附近",
"longitude":120.15901026,
"latitude":30.26972904
},
{
"bid":75,
"title":"体育场路中河北路口自行车租赁点",
"addr":"体育场路216附近",
"longitude":120.16641210,
"latitude":30.27243564
},
{
"bid":76,
"title":"杭州市公共自行车租赁点(浙江体育大厦西)",
"addr":"体育场路中河北路口2104",
"longitude":120.16641210,
"latitude":30.27243564
},
{
"bid":77,
"title":"天目山路三十八号自行车租赁点",
"addr":"天目山路36附近",
"longitude":120.14769590,
"latitude":30.27505516
},
{
"bid":78,
"title":"环岛宾馆自行车租赁点",
"addr":"环城西路43附近",
"longitude":120.15110997,
"latitude":30.27141050
},
{
"bid":79,
"title":"2392朝晖路122号自行车租赁点",
"addr":"朝晖路120-7附近",
"longitude":120.17040328,
"latitude":30.28129028
},
{
"bid":80,
"title":"古河巷南自行车租赁点",
"addr":"古河巷南4050",
"longitude":120.14963441,
"latitude":30.28713634
},
{
"bid":81,
"title":"朝晖路122号自行车租赁点",
"addr":"朝晖路112号附近",
"longitude":120.17051563,
"latitude":30.28114151
},
{
"bid":82,
"title":"打铁关点起锚站自行车租赁点",
"addr":"东晖路附近",
"longitude":120.16849820,
"latitude":30.28598622
},
{
"bid":83,
"title":"环城北路167号自行车租赁点",
"addr":"环城北路149附近",
"longitude":120.17022616,
"latitude":30.27643942
},
{
"bid":84,
"title":"市规划局自行车租赁点",
"addr":"莫干山路225附近",
"longitude":120.14585329,
"latitude":30.28007751
},
{
"bid":85,
"title":"体育场路209号自行车租赁点",
"addr":"体育场路附近",
"longitude":120.16693370,
"latitude":30.27187067
},
{
"bid":86,
"title":"文三路15号自行车租赁点",
"addr":"文三路15号",
"longitude":120.14565573,
"latitude":30.28011717
},
{
"bid":87,
"title":"延安新村社区自行车租赁点",
"addr":"百井坊巷70附近",
"longitude":120.16060606,
"latitude":30.26897308
},
{
"bid":88,
"title":"朝晖四区自行车租赁点",
"addr":"新市街",
"longitude":120.16375671,
"latitude":30.28977192
},
{
"bid":89,
"title":"莫干山路文三支路口自行车租赁点",
"addr":"莫干山路237附近",
"longitude":120.14560648,
"latitude":30.28145795
},
{
"bid":90,
"title":"上塘路消防中队自行车租赁点",
"addr":"上塘路221附近",
"longitude":120.15960927,
"latitude":30.29085305
},
{
"bid":91,
"title":"文晖路绍兴路口自行车租赁点",
"addr":"文晖路98附近",
"longitude":120.17000482,
"latitude":30.28463319
},
{
"bid":92,
"title":"市体育馆自行车租赁点",
"addr":"体育场路207附近",
"longitude":120.16763981,
"latitude":30.27194899
},
{
"bid":93,
"title":"武林门西自行车租赁点(体育场路)",
"addr":"体育场路463附近",
"longitude":120.14887051,
"latitude":30.27187551
},
{
"bid":94,
"title":"朝晖五区自行车租赁点",
"addr":"潮王路48附近",
"longitude":120.15548307,
"latitude":30.29089444
},
{
"bid":95,
"title":"杭州市公共自行车租赁点(屏风街)",
"addr":"屏风街",
"longitude":120.16374940,
"latitude":30.26936092
},
{
"bid":96,
"title":"上塘路消防中队自行车租赁点",
"addr":"朝晖二区50号西(公交车站东北侧)",
"longitude":120.16003451,
"latitude":30.29113181
},
{
"bid":97,
"title":"和平小区自行车租赁点",
"addr":"朝晖路125-1附近",
"longitude":120.17172124,
"latitude":30.28096278
},
{
"bid":98,
"title":"朝晖九区公交车站自行车租赁点",
"addr":"河东路215号",
"longitude":120.15357852,
"latitude":30.29057502
},
{
"bid":99,
"title":"文晖大桥西自行车租赁点",
"addr":"文晖路113附近",
"longitude":120.17082028,
"latitude":30.28426876
},
{
"bid":100,
"title":"孝丰路口自行车租赁点",
"addr":"环城西路66附近",
"longitude":120.15153334,
"latitude":30.26968242
},
{
"bid":101,
"title":"杭州科技馆自行车租赁点",
"addr":"延安路487号附近",
"longitude":120.15874363,
"latitude":30.26778272
},
{
"bid":102,
"title":"文晖路一百零八号自行车租赁点",
"addr":"文晖路108附近",
"longitude":120.17110307,
"latitude":30.28482124
},
{
"bid":103,
"title":"杭州电视台自行车租赁点",
"addr":"环城北路附近",
"longitude":120.17204953,
"latitude":30.27717277
},
{
"bid":104,
"title":"梅登高桥自行车租赁点",
"addr":"中河北路45附近",
"longitude":120.16663398,
"latitude":30.26983430
},
{
"bid":105,
"title":"屏风街一号自行车租赁点",
"addr":"中河北路84附近",
"longitude":120.16610041,
"latitude":30.26949232
},
{
"bid":106,
"title":"建设银行门口自行车租赁点",
"addr":"文三路47-49附近",
"longitude":120.14404325,
"latitude":30.28007346
},
{
"bid":107,
"title":"金祝路口自行车租赁点",
"addr":"体育场路540附近",
"longitude":120.14756381,
"latitude":30.27163226
},
{
"bid":108,
"title":"公交浙工大站自行车租赁点",
"addr":"潮王路18附近",
"longitude":120.16031524,
"latitude":30.29232921
},
{
"bid":109,
"title":"上塘路工大西自行车租赁点",
"addr":"潮王路20附近",
"longitude":120.15898026,
"latitude":30.29256370
},
{
"bid":110,
"title":"朝晖2号码头自行车租赁点",
"addr":"东晖路朝晖四小区附近",
"longitude":120.16715784,
"latitude":30.29021426
},
{
"bid":111,
"title":"运河魂码头自行车租赁点",
"addr":"环城北路附近",
"longitude":120.17316582,
"latitude":30.27755782
},
{
"bid":112,
"title":"环城北路139号自行车租赁点",
"addr":"环城北路123附近",
"longitude":120.17303352,
"latitude":30.27640569
},
{
"bid":113,
"title":"浙江日报自行车租赁点",
"addr":"体育场路176-1附近",
"longitude":120.17064177,
"latitude":30.27198563
},
{
"bid":114,
"title":"外文书店自行车租赁点",
"addr":"凤起路442附近",
"longitude":120.16027126,
"latitude":30.26660667
},
{
"bid":115,
"title":"文晖路东新路东北角自行车租赁点",
"addr":"文晖路86附近",
"longitude":120.17267975,
"latitude":30.28496817
},
{
"bid":116,
"title":"朝晖1号码头自行车租赁点",
"addr":"东晖路附近",
"longitude":120.16821000,
"latitude":30.29012925
},
{
"bid":117,
"title":"潮王路二十五号自行车租赁点",
"addr":"潮王路25附近",
"longitude":120.16263512,
"latitude":30.29266850
},
{
"bid":118,
"title":"莫干山路160号自行车租赁点",
"addr":"莫干山路154附近",
"longitude":120.14416214,
"latitude":30.28529213
},
{
"bid":119,
"title":"和平苑社区自行车租赁点",
"addr":"文晖东新路东(和平苑社区打铁关新村西)",
"longitude":120.17210193,
"latitude":30.28620796
},
{
"bid":120,
"title":"公交新河坝巷站自行车租赁点",
"addr":"潮王路315附近",
"longitude":120.14485695,
"latitude":30.28672215
},
{
"bid":121,
"title":"上塘路华电弄自行车租赁点",
"addr":"华电弄1附近",
"longitude":120.15783981,
"latitude":30.29334251
},
{
"bid":122,
"title":"浙江宝石研究所自行车租赁点",
"addr":"凤起路391附近",
"longitude":120.16198537,
"latitude":30.26653887
},
{
"bid":123,
"title":"地铁打铁关站c自行车租赁点",
"addr":"东新路附近",
"longitude":120.17165753,
"latitude":30.28716503
},
{
"bid":124,
"title":"建国路环城北路口自行车租赁点",
"addr":"建国北路647附近",
"longitude":120.17378271,
"latitude":30.27675705
},
{
"bid":125,
"title":"地铁打铁关C1自行车租赁点",
"addr":"东新路96号附近",
"longitude":120.17166656,
"latitude":30.28718505
},
{
"bid":126,
"title":"马塍路二四号自行车租赁点",
"addr":"招银金鼎广场与西溪路交叉口(东侧)",
"longitude":120.14252297,
"latitude":30.28126682
},
{
"bid":127,
"title":"马塍路二西号自行车租赁点",
"addr":"招银金鼎广场与西溪路交叉口(东侧)",
"longitude":120.14249891,
"latitude":30.28115979
},
{
"bid":128,
"title":"体育场路125号自行车租赁点",
"addr":"体育场路125号",
"longitude":120.17182730,
"latitude":30.27198085
},
{
"bid":129,
"title":"和乐苑自行车租赁点",
"addr":"武林路235附近",
"longitude":120.15592948,
"latitude":30.26592171
},
{
"bid":130,
"title":"文三路马塍路口自行车租赁点",
"addr":"文三路89附近",
"longitude":120.14209489,
"latitude":30.28022422
},
{
"bid":131,
"title":"天目山路83号自行车租赁点",
"addr":"天目山路83附近",
"longitude":120.14328566,
"latitude":30.27418477
},
{
"bid":132,
"title":"凤起路333号自行车租赁点",
"addr":"凤起路333号",
"longitude":120.16521097,
"latitude":30.26688189
},
{
"bid":133,
"title":"浙工大游泳馆自行车租赁点",
"addr":"朝晖二区50号西",
"longitude":120.15801828,
"latitude":30.29401976
},
{
"bid":134,
"title":"公交卫生院自行车租赁点",
"addr":"公交集团旁",
"longitude":120.17476655,
"latitude":30.27769679
},
{
"bid":135,
"title":"朝晖路73号自行车租赁点",
"addr":"朝晖路73附近",
"longitude":120.17489662,
"latitude":30.28146766
},
{
"bid":136,
"title":"长板巷自行车租赁点",
"addr":"长板巷39附近",
"longitude":120.15084442,
"latitude":30.29262490
},
{
"bid":137,
"title":"上塘路长板巷西南处自行车租赁点",
"addr":"上塘高架和德胜立交桥的交叉口附近",
"longitude":120.15733927,
"latitude":30.29416649
},
{
"bid":138,
"title":"地铁凤起路A1自行车租赁点",
"addr":"孩儿巷183附近",
"longitude":120.15916108,
"latitude":30.26524773
},
{
"bid":139,
"title":"建国北路629号自行车租赁点",
"addr":"艮山公园南",
"longitude":120.17465537,
"latitude":30.27591875
},
{
"bid":140,
"title":"文晖大桥西(1)自行车租赁点",
"addr":"文晖路2附近",
"longitude":120.17427749,
"latitude":30.28504114
},
{
"bid":141,
"title":"凤起路自行车租赁点(都锦生路)",
"addr":"凤起路583附近",
"longitude":120.15399786,
"latitude":30.26542523
},
{
"bid":142,
"title":"十四中自行车租赁点",
"addr":"庆春路225附近",
"longitude":120.15406405,
"latitude":30.26538336
},
{
"bid":143,
"title":"孩儿巷思敬里自行车租赁点",
"addr":"孩儿巷234号附近",
"longitude":120.15798663,
"latitude":30.26489858
},
{
"bid":144,
"title":"仓河下30号自行车租赁点",
"addr":"体育场路108附近",
"longitude":120.17393044,
"latitude":30.27325366
},
{
"bid":145,
"title":"海华广场自行车租赁点",
"addr":"环城北路101附近",
"longitude":120.17541252,
"latitude":30.27697706
},
{
"bid":146,
"title":"省府路南3自行车租赁点",
"addr":"省府路附近",
"longitude":120.14839452,
"latitude":30.26742608
},
{
"bid":147,
"title":"天目山路一九四号自行车租赁点",
"addr":"天目山路142附近",
"longitude":120.14184368,
"latitude":30.27455836
},
{
"bid":148,
"title":"绍兴支路加油站自行车租赁点",
"addr":"朝晖路60附近",
"longitude":120.17595069,
"latitude":30.28194457
},
{
"bid":149,
"title":"凤起路环西路口自行车租赁点",
"addr":"凤起路603附近",
"longitude":120.15228488,
"latitude":30.26531515
},
{
"bid":150,
"title":"莫衙营自行车租赁点",
"addr":"建国北路永康巷",
"longitude":120.17500955,
"latitude":30.27427557
},
{
"bid":151,
"title":"省口腔医院北侧自行车租赁点",
"addr":"凤起路138附近",
"longitude":120.15894351,
"latitude":30.26434940
},
{
"bid":152,
"title":"绍兴支路自行车租赁点",
"addr":"绍兴支路12附近",
"longitude":120.17606901,
"latitude":30.28228475
},
{
"bid":153,
"title":"省府路南2自行车租赁点",
"addr":"省府路附近",
"longitude":120.14786905,
"latitude":30.26718519
},
{
"bid":154,
"title":"绍兴支路开元职高自行车租赁点",
"addr":"绍兴支路29附近",
"longitude":120.17585427,
"latitude":30.28363222
},
{
"bid":155,
"title":"体育场路宝善宾馆自行车租赁点",
"addr":"体育场路宝善桥东北角2437",
"longitude":120.17448713,
"latitude":30.27272874
},
{
"bid":156,
"title":"天目山路保俶路口自行车租赁点",
"addr":"保俶路238附近",
"longitude":120.14147673,
"latitude":30.27404181
},
{
"bid":157,
"title":"凤起路620号自行车租赁点",
"addr":"凤起路619附近",
"longitude":120.15099915,
"latitude":30.26546585
},
{
"bid":158,
"title":"凤起路196号自行车租赁点",
"addr":"凤起路196号",
"longitude":120.16902234,
"latitude":30.26712103
},
{
"bid":159,
"title":"湖墅路夹城巷站自行车租赁点",
"addr":"湖墅南路372附近",
"longitude":120.14561972,
"latitude":30.29099798
},
{
"bid":160,
"title":"东新路绍兴路口自行车租赁点",
"addr":"东新路132号",
"longitude":120.17243763,
"latitude":30.28982121
},
{
"bid":161,
"title":"龙游路口自行车租赁点",
"addr":"环城西路28附近",
"longitude":120.15312036,
"latitude":30.26468071
},
{
"bid":162,
"title":"流水苑309起点站自行车租赁点",
"addr":"绍兴支路51附近",
"longitude":120.17581006,
"latitude":30.28453304
},
{
"bid":163,
"title":"东新路绍兴路西北角自行车租赁点",
"addr":"绍兴路145附近",
"longitude":120.17204141,
"latitude":30.29038641
},
{
"bid":164,
"title":"喜得宝自行车租赁点",
"addr":"环城北路89附近",
"longitude":120.17649670,
"latitude":30.27713105
},
{
"bid":165,
"title":"少年宫北门自行车租赁点",
"addr":"凤起路附近",
"longitude":120.15046462,
"latitude":30.26539890
},
{
"bid":166,
"title":"莫衙营建国路口自行车租赁点",
"addr":"建国北路564附近",
"longitude":120.17563842,
"latitude":30.27415375
},
{
"bid":167,
"title":"中河北路39号自行车租赁点",
"addr":"中河北路42附近",
"longitude":120.16636053,
"latitude":30.26540618
},
{
"bid":168,
"title":"文晖桥东自行车租赁点(文晖路)",
"addr":"文晖路2-8附近",
"longitude":120.17580699,
"latitude":30.28527196
},
{
"bid":169,
"title":"健康路8号自行车租赁点",
"addr":"健康路8号",
"longitude":120.17335298,
"latitude":30.27023386
},
{
"bid":170,
"title":"体育场路保俶路口自行车租赁点",
"addr":"体育场路565附近",
"longitude":120.14359788,
"latitude":30.26989768
},
{
"bid":171,
"title":"焦家村公交站自行车租赁点",
"addr":"绍兴路99附近",
"longitude":120.17433238,
"latitude":30.28831691
},
{
"bid":172,
"title":"西溪数码港自行车租赁点",
"addr":"文三路123附近",
"longitude":120.13953401,
"latitude":30.27986813
},
{
"bid":173,
"title":"省府路南1自行车租赁点",
"addr":"省府路27附近",
"longitude":120.14707785,
"latitude":30.26675186
},
{
"bid":174,
"title":"25路八字桥公共自行车租赁店",
"addr":"保俶北路11附近",
"longitude":120.13991634,
"latitude":30.27614510
},
{
"bid":175,
"title":"25路八字桥站自行车租赁点",
"addr":"保俶北路11号",
"longitude":120.13988124,
"latitude":30.27623504
},
{
"bid":176,
"title":"环北市场自行车租赁点",
"addr":"凤起路263附近",
"longitude":120.17011965,
"latitude":30.26670613
},
{
"bid":177,
"title":"体东社区自行车租赁点",
"addr":"公交总公司南侧",
"longitude":120.17652001,
"latitude":30.27429137
},
{
"bid":178,
"title":"延安路嘉里中心东自行车租赁点",
"addr":"延安路389号附近",
"longitude":120.15894160,
"latitude":30.26319850
},
{
"bid":179,
"title":"铁路货运中心自行车租赁点",
"addr":"绍兴路83附近",
"longitude":120.17523810,
"latitude":30.28781964
},
{
"bid":180,
"title":"岳家湾41号自行车租赁点",
"addr":"岳家湾41号2438",
"longitude":120.17380737,
"latitude":30.26973776
},
{
"bid":181,
"title":"凤起路丝绸城自行车租赁点",
"addr":"新华路199附近",
"longitude":120.17127805,
"latitude":30.26735425
},
{
"bid":182,
"title":"建国北路503号自行车租赁点",
"addr":"建国北路529附近",
"longitude":120.17543601,
"latitude":30.27185659
},
{
"bid":183,
"title":"打铁关加油站自行车租赁点",
"addr":"绍兴路128附近",
"longitude":120.17278155,
"latitude":30.29107772
},
{
"bid":184,
"title":"东粮泊巷自行车租赁点",
"addr":"德胜快速路湖墅南路入口和德胜快速路的交叉口附近",
"longitude":120.14990352,
"latitude":30.29496397
},
{
"bid":185,
"title":"秋涛路B自行车租赁点",
"addr":"德胜路附近",
"longitude":120.15211583,
"latitude":30.29581381
},
{
"bid":186,
"title":"290路文三新村站自行车租赁点",
"addr":"保俶北路15附近",
"longitude":120.13885241,
"latitude":30.27733830
},
{
"bid":187,
"title":"现代大酒店自行车租赁点",
"addr":"绍兴路206附近",
"longitude":120.16859978,
"latitude":30.29469149
},
{
"bid":188,
"title":"凤起路205号自行车租赁点",
"addr":"新华路154号附近",
"longitude":120.17178159,
"latitude":30.26683124
},
{
"bid":189,
"title":"上塘路海外海快捷假日酒店自行车租赁点",
"addr":"上塘路333号杭州海外海皇冠假日酒店(东门)附近",
"longitude":120.15526994,
"latitude":30.29695539
},
{
"bid":190,
"title":"德胜路S19-1墩自行车租赁点",
"addr":"上塘路285附近",
"longitude":120.15468222,
"latitude":30.29689433
},
{
"bid":191,
"title":"少年宫广场自行车租赁点",
"addr":"白沙路附近",
"longitude":120.15193905,
"latitude":30.26323972
},
{
"bid":192,
"title":"商校自行车租赁点",
"addr":"德胜路240号",
"longitude":120.15220504,
"latitude":30.29636291
},
{
"bid":193,
"title":"保俶路凤起路口北自行车租赁点",
"addr":"保俶路18附近",
"longitude":120.14804977,
"latitude":30.26473273
},
{
"bid":194,
"title":"朝晖路20号自行车租赁点",
"addr":"朝晖路20附近",
"longitude":120.17862961,
"latitude":30.28136956
},
{
"bid":195,
"title":"公交总公司(2)自行车租赁点",
"addr":"环城北路55附近",
"longitude":120.17854069,
"latitude":30.27727780
},
{
"bid":196,
"title":"25路文三新村站自行车租赁点",
"addr":"保俶北路18附近",
"longitude":120.13789076,
"latitude":30.27864768
},
{
"bid":197,
"title":"文三路保俶北路口自行车租赁点",
"addr":"招银金鼎广场与西溪路交叉口(东侧)",
"longitude":120.13778539,
"latitude":30.27976240
},
{
"bid":198,
"title":"打铁关自行车租赁点",
"addr":"东新路附近",
"longitude":120.17323882,
"latitude":30.29211046
},
{
"bid":199,
"title":"德胜路上塘路西自行车租赁点",
"addr":"德胜路220号",
"longitude":120.15394404,
"latitude":30.29717895
},
{
"bid":200,
"title":"德胜立交东自行车租赁点",
"addr":"德胜路267号",
"longitude":120.15583455,
"latitude":30.29749136
},
{
"bid":201,
"title":"永天实验小学自行车租赁点",
"addr":"永天实验小学",
"longitude":120.17800540,
"latitude":30.27391214
},
{
"bid":202,
"title":"艮山桥西自行车租赁点",
"addr":"闸弄口和朝晖路的交叉口附近",
"longitude":120.17920540,
"latitude":30.27995575
},
{
"bid":203,
"title":"工商之江支行自行车租赁点",
"addr":"凤起路96附近",
"longitude":120.17315265,
"latitude":30.26711877
},
{
"bid":204,
"title":"保俶路凤起路口东南自行车租赁点",
"addr":"保俶路25附近",
"longitude":120.14798564,
"latitude":30.26410067
},
{
"bid":205,
"title":"现代雅苑自行车租赁点",
"addr":"绍兴路248附近",
"longitude":120.16724261,
"latitude":30.29611678
},
{
"bid":206,
"title":"宝石二路1号自行车租赁点",
"addr":"宝石二路2附近",
"longitude":120.14284501,
"latitude":30.26747166
},
{
"bid":207,
"title":"仙林直街自行车租赁点",
"addr":"仙林桥直街9-35号附近",
"longitude":120.16563659,
"latitude":30.26270406
},
{
"bid":208,
"title":"西溪路75号自行车租赁点",
"addr":"西溪路52附近",
"longitude":120.13930507,
"latitude":30.27184154
},
{
"bid":209,
"title":"延安路庆春路西北角自行车租赁点",
"addr":"庆春路258附近",
"longitude":120.15900292,
"latitude":30.26149576
},
{
"bid":210,
"title":"东园街自行车租赁点",
"addr":"东园街6附近",
"longitude":120.17625259,
"latitude":30.26977429
},
{
"bid":211,
"title":"环城北路工商银行自行车租赁点",
"addr":"环城北路29附近",
"longitude":120.17954060,
"latitude":30.27732662
},
{
"bid":212,
"title":"武林路南口自行车租赁点",
"addr":"庆春路298附近",
"longitude":120.15572826,
"latitude":30.26140673
},
{
"bid":213,
"title":"德苑路西自行车租赁点",
"addr":"德胜路188附近",
"longitude":120.15696782,
"latitude":30.29831735
},
{
"bid":214,
"title":"仙林桥自行车租赁点",
"addr":"中河北路11附近",
"longitude":120.16667069,
"latitude":30.26255801
},
{
"bid":215,
"title":"文一路4号自行车租赁点",
"addr":"湖墅南路信义巷口(南面人行道)",
"longitude":120.14078947,
"latitude":30.29069202
},
{
"bid":216,
"title":"文二街农贸市场自行车租赁点",
"addr":"保俶北路144附近",
"longitude":120.13921744,
"latitude":30.28852974
},
{
"bid":217,
"title":"绍兴路口自行车租赁点",
"addr":"绍兴路274附近",
"longitude":120.16624453,
"latitude":30.29722178
},
{
"bid":218,
"title":"莫衙营122到2自行车租赁点",
"addr":"莫衙营127附近",
"longitude":120.17944951,
"latitude":30.27519866
},
{
"bid":219,
"title":"杭州市环保局自行车租赁点",
"addr":"双眼井巷20附近",
"longitude":120.17184994,
"latitude":30.26505952
},
{
"bid":220,
"title":"公交总公司自行车租赁点(永康巷)",
"addr":"环城北路2附近",
"longitude":120.18008212,
"latitude":30.27797754
},
{
"bid":221,
"title":"老凤祥自行车租赁点",
"addr":"延安路345附近",
"longitude":120.15871712,
"latitude":30.26093828
},
{
"bid":222,
"title":"市环保局自行车租赁点",
"addr":"新华路112附近",
"longitude":120.17196028,
"latitude":30.26501673
},
{
"bid":223,
"title":"文一路湖墅路西自行车租赁点",
"addr":"莫干山路234附近",
"longitude":120.14095186,
"latitude":30.29119023
},
{
"bid":224,
"title":"庆春路延安路口自行车租赁点",
"addr":"庆春路230附近",
"longitude":120.15980736,
"latitude":30.26085931
},
{
"bid":225,
"title":"长庆街42号自行车租赁点",
"addr":"长庆街42号",
"longitude":120.16865460,
"latitude":30.26289572
},
{
"bid":226,
"title":"树园小区自行车租赁点",
"addr":"建国北路426附近",
"longitude":120.17844186,
"latitude":30.27165915
},
{
"bid":227,
"title":"艮山公园自行车租赁点",
"addr":"朝晖路附近",
"longitude":120.18057746,
"latitude":30.27911633
},
{
"bid":228,
"title":"绍兴路307号自行车租赁点",
"addr":"绍兴路280附近",
"longitude":120.16558049,
"latitude":30.29790645
},
{
"bid":229,
"title":"庆春路203号自行车租赁点",
"addr":"庆春路203号",
"longitude":120.15989063,
"latitude":30.26059848
},
{
"bid":230,
"title":"流水东苑自行车租赁点",
"addr":"闸弄口95号附近",
"longitude":120.18069074,
"latitude":30.27980346
},
{
"bid":231,
"title":"德胜路152号西自行车租赁点",
"addr":"德胜路160附近",
"longitude":120.15857552,
"latitude":30.29900624
},
{
"bid":232,
"title":"仓基新村自行车租赁点",
"addr":"湖墅南路460附近",
"longitude":120.14429271,
"latitude":30.29471634
},
{
"bid":233,
"title":"延安路305号自行车租赁点",
"addr":"延安路305附近",
"longitude":120.15908425,
"latitude":30.26050500
},
{
"bid":234,
"title":"明珠商业中心自行车租赁点",
"addr":"延安路302附近",
"longitude":120.15906018,
"latitude":30.26048095
},
{
"bid":235,
"title":"庆春路一九九号自行车租赁点",
"addr":"庆春路199号",
"longitude":120.16063785,
"latitude":30.26057088
},
{
"bid":236,
"title":"西湖时代广场一自行车租赁点",
"addr":"庆春路227附近",
"longitude":120.15633612,
"latitude":30.26053792
},
{
"bid":237,
"title":"环城北路环城东路口自行车租赁点",
"addr":"环城北路1号附近",
"longitude":120.18066987,
"latitude":30.27742666
},
{
"bid":238,
"title":"文三路178号自行车租赁点",
"addr":"文三路182附近",
"longitude":120.13582829,
"latitude":30.27990141
},
{
"bid":239,
"title":"东坡路西自行车租赁点",
"addr":"东坡路118号附近",
"longitude":120.15689579,
"latitude":30.26033997
},
{
"bid":240,
"title":"德胜社区自行车租赁点",
"addr":"上塘路368附近",
"longitude":120.15423474,
"latitude":30.29895728
},
{
"bid":241,
"title":"小车桥自行车租赁点",
"addr":"湖滨路54附近",
"longitude":120.15486983,
"latitude":30.26039825
},
{
"bid":242,
"title":"德胜小区自行车租赁点",
"addr":"上塘路368附近",
"longitude":120.15441525,
"latitude":30.29912359
},
{
"bid":243,
"title":"保俶北路59号自行车租赁点",
"addr":"保俶北路60附近",
"longitude":120.13600540,
"latitude":30.28400726
},
{
"bid":244,
"title":"文晖农贸市场自行车租赁点",
"addr":"天城路218附近",
"longitude":120.18021987,
"latitude":30.28582100
},
{
"bid":245,
"title":"16路松木场自行车租赁点",
"addr":"曙光路118附近",
"longitude":120.13913487,
"latitude":30.26889754
},
{
"bid":246,
"title":"海洋二所自行车租赁点",
"addr":"保俶北路36附近",
"longitude":120.13543211,
"latitude":30.28182362
},
{
"bid":247,
"title":"庆春路一六七号自行车租赁点",
"addr":"庆春167号",
"longitude":120.16401594,
"latitude":30.26038621
},
{
"bid":248,
"title":"上塘路德胜路口自行车租赁点",
"addr":"上塘路371附近",
"longitude":120.15305126,
"latitude":30.29924911
},
{
"bid":249,
"title":"明珠小百货自行车租赁点",
"addr":"延安路302-1附近",
"longitude":120.15945240,
"latitude":30.25975274
},
{
"bid":250,
"title":"闸弄口支小路闸弄口路东北自行车租赁点",
"addr":"文晖大桥天仙新苑附近",
"longitude":120.18138045,
"latitude":30.28323437
},
{
"bid":251,
"title":"城东公园自行车租赁点(艮山西路)",
"addr":"公交集团旁",
"longitude":120.18164368,
"latitude":30.27759340
},
{
"bid":252,
"title":"文晖桥东自行车租赁点(天城路)",
"addr":"天城路295附近",
"longitude":120.18088383,
"latitude":30.28543724
},
{
"bid":253,
"title":"六公园自行车租赁点",
"addr":"湖滨路51附近",
"longitude":120.15450079,
"latitude":30.25984363
},
{
"bid":254,
"title":"新华路自行车租赁点",
"addr":"新华路59附近",
"longitude":120.17143789,
"latitude":30.26298993
},
{
"bid":255,
"title":"23路下宁桥站自行车租赁点",
"addr":"保俶北路85附近",
"longitude":120.13666980,
"latitude":30.28777488
},
{
"bid":256,
"title":"东坡路长生路口自行车租赁点",
"addr":"长生路35附近",
"longitude":120.15794195,
"latitude":30.25941197
},
{
"bid":257,
"title":"莫衙营环城东路自行车租赁点",
"addr":"莫衙营122-2",
"longitude":120.18145532,
"latitude":30.27537028
},
{
"bid":258,
"title":"西溪路杭大路西自行车租赁点",
"addr":"杭大路31附近",
"longitude":120.13616076,
"latitude":30.27266061
},
{
"bid":259,
"title":"艮山公园南自行车租赁点",
"addr":"艮山西路272附近",
"longitude":120.18194852,
"latitude":30.27800891
},
{
"bid":260,
"title":"长生路四八号东自行车租赁点",
"addr":"东坡路101附近",
"longitude":120.15749965,
"latitude":30.25937016
},
{
"bid":261,
"title":"省妇保西门自行车租赁点",
"addr":"庆春路275附近",
"longitude":120.16344128,
"latitude":30.25978219
},
{
"bid":262,
"title":"长生路菩堤寺路口自行车租赁点",
"addr":"长生路15-9附近",
"longitude":120.16054468,
"latitude":30.25938181
},
{
"bid":263,
"title":"公交总公司南自行车租赁点",
"addr":"环城东路附近",
"longitude":120.18175312,
"latitude":30.27604175
},
{
"bid":264,
"title":"菩提寺路口自行车租赁点",
"addr":"庆春路203号",
"longitude":120.16042332,
"latitude":30.25932258
},
{
"bid":265,
"title":"诚信大厦自行车租赁点",
"addr":"建国北路238附近",
"longitude":120.17641335,
"latitude":30.26632490
},
{
"bid":266,
"title":"东坡路62号自行车租赁点",
"addr":"东坡路62号",
"longitude":120.15809543,
"latitude":30.25914128
},
{
"bid":267,
"title":"杭大路8号自行车租赁点",
"addr":"杭大路19号附近",
"longitude":120.13682264,
"latitude":30.27066980
},
{
"bid":268,
"title":"凤起路70号自行车租赁点",
"addr":"凤起路70",
"longitude":120.17741524,
"latitude":30.26699769
},
{
"bid":269,
"title":"庆馀亭自行车租赁点",
"addr":"新华路与长庆街道交叉口",
"longitude":120.16825660,
"latitude":30.26051617
},
{
"bid":270,
"title":"179路上宁桥站自行车租赁点",
"addr":"文三路233欣园居附近",
"longitude":120.13385026,
"latitude":30.27971251
},
{
"bid":271,
"title":"石板巷新村自行车租赁点",
"addr":"大树路6附近",
"longitude":120.17851140,
"latitude":30.26763765
},
{
"bid":272,
"title":"杭大路曙光路口自行车租赁点",
"addr":"杭大路附近",
"longitude":120.13714263,
"latitude":30.26886145
},
{
"bid":273,
"title":"德胜路绍兴路口自行车租赁点",
"addr":"德胜立交桥",
"longitude":120.16258931,
"latitude":30.30076551
},
{
"bid":274,
"title":"刀矛巷体育场路口自行车租赁点",
"addr":"体育场路25附近",
"longitude":120.18163908,
"latitude":30.27254988
},
{
"bid":275,
"title":"西溪路118号自行车租赁点",
"addr":"西溪路118浙江省国土资源厅附近",
"longitude":120.13500580,
"latitude":30.27257789
},
{
"bid":276,
"title":"董家苑西门自行车租赁点",
"addr":"池塘庙路三里新城董家苑附近",
"longitude":120.18028773,
"latitude":30.28981471
},
{
"bid":277,
"title":"庆春路一四九号自行车租赁点",
"addr":"庆春路149号",
"longitude":120.16842513,
"latitude":30.26022151
},
{
"bid":278,
"title":"庆春路100号自行车租赁点",
"addr":"新华路与长庆街道交叉口",
"longitude":120.16913423,
"latitude":30.26048182
},
{
"bid":279,
"title":"瑞丰大厦自行车租赁点",
"addr":"庆春路153附近",
"longitude":120.16744022,
"latitude":30.25982870
},
{
"bid":280,
"title":"肛泰医院自行车租赁点",
"addr":"东新路267附近",
"longitude":120.17414713,
"latitude":30.29669065
},
{
"bid":281,
"title":"省妇保东门自行车租赁点",
"addr":"岳王路39附近",
"longitude":120.16428689,
"latitude":30.25869387
},
{
"bid":282,
"title":"中策职高自行车租赁点",
"addr":"霞湾巷65附近",
"longitude":120.14502445,
"latitude":30.29816619
},
{
"bid":283,
"title":"庆春路90号自行车租赁点",
"addr":"庆春路90号",
"longitude":120.17013421,
"latitude":30.26053470
},
{
"bid":284,
"title":"德胜小区自行车租赁点",
"addr":"德苑路103附近",
"longitude":120.15746803,
"latitude":30.30152990
},
{
"bid":285,
"title":"上塘路三百九十一号自行车租赁点",
"addr":"上塘路383附近",
"longitude":120.15157084,
"latitude":30.30080628
},
{
"bid":286,
"title":"艮园小区自行车租赁点",
"addr":"刀茅巷220附近",
"longitude":120.18170439,
"latitude":30.27113213
},
{
"bid":287,
"title":"市一医院自行车租赁点(学士路)",
"addr":"市一医院",
"longitude":120.16186171,
"latitude":30.25803938
},
{
"bid":288,
"title":"利星广场自行车租赁点",
"addr":"星远里三弄4号",
"longitude":120.15789696,
"latitude":30.25778303
},
{
"bid":289,
"title":"学士路九二号自行车租赁点",
"addr":"学士路92号",
"longitude":120.15660715,
"latitude":30.25775565
},
{
"bid":290,
"title":"庆春路一三五一号自行车租赁点",
"addr":"庆春路135-1号",
"longitude":120.17020244,
"latitude":30.26017286
},
{
"bid":291,
"title":"建国路101号自行车租赁点",
"addr":"建国路101号",
"longitude":120.17597829,
"latitude":30.26366233
},
{
"bid":292,
"title":"刀矛巷工人新村7幢自行车租赁点",
"addr":"刀茅巷231附近",
"longitude":120.18160117,
"latitude":30.27013403
},
{
"bid":293,
"title":"省妇保自行车租赁点",
"addr":"岳王路36附近",
"longitude":120.16406929,
"latitude":30.25808851
},
{
"bid":294,
"title":"学士路西自行车租赁点",
"addr":"湖滨路31附近",
"longitude":120.15603348,
"latitude":30.25753462
},
{
"bid":295,
"title":"行知幼儿园自行车租赁点",
"addr":"岳王路31附近",
"longitude":120.16421374,
"latitude":30.25786180
},
{
"bid":296,
"title":"板桥路一十自行车租赁点",
"addr":"板桥路10号",
"longitude":120.16142647,
"latitude":30.25741262
},
{
"bid":297,
"title":"市一医院自行车租赁点(浣纱路)",
"addr":"浣纱路270附近",
"longitude":120.16279052,
"latitude":30.25754116
},
{
"bid":298,
"title":"绍兴路360号杭州申华自行车租赁点",
"addr":"绍兴路360附近",
"longitude":120.16216192,
"latitude":30.30212956
},
{
"bid":299,
"title":"中河中路二四十号自行车租赁点",
"addr":"中河中路240附近",
"longitude":120.16741827,
"latitude":30.25851077
},
{
"bid":300,
"title":"中河中路240号自行车租赁点",
"addr":"中河中路240号",
"longitude":120.16758777,
"latitude":30.25853608
},
{
"bid":301,
"title":"董家桥路口三里兰苑自行车租赁点",
"addr":"尧典桥路和董家桥路的交叉口附近",
"longitude":120.18107488,
"latitude":30.29146096
},
{
"bid":302,
"title":"庆春路八七号自行车租赁点",
"addr":"庆春路87号",
"longitude":120.17190451,
"latitude":30.26018205
},
{
"bid":303,
"title":"庆春电影大世界自行车租赁点",
"addr":"庆春路72附近",
"longitude":120.17249926,
"latitude":30.26048913
},
{
"bid":304,
"title":"信义坊广场自行车租赁点",
"addr":"信义坊步行街1号",
"longitude":120.14118399,
"latitude":30.29713095
},
{
"bid":305,
"title":"岳王路二七号右侧自行车租赁点",
"addr":"岳王27号",
"longitude":120.16441939,
"latitude":30.25749121
},
{
"bid":306,
"title":"城东公园自行车租赁点(环城东路)",
"addr":"环城东路282附近",
"longitude":120.18310338,
"latitude":30.27142761
},
{
"bid":307,
"title":"西溪路149号自行车租赁点",
"addr":"西溪路128附近",
"longitude":120.13313708,
"latitude":30.27248517
},
{
"bid":308,
"title":"刀矛巷小学自行车租赁点",
"addr":"回龙庙前65附近",
"longitude":120.17891478,
"latitude":30.26525360
},
{
"bid":309,
"title":"百丈井自行车租赁点",
"addr":"上塘路401附近",
"longitude":120.15064408,
"latitude":30.30172352
},
{
"bid":310,
"title":"德苑路南自行车租赁点",
"addr":"德苑路和霞湾路的交叉口附近",
"longitude":120.15659937,
"latitude":30.30269717
},
{
"bid":311,
"title":"艮山西路东方豪生自行车租赁点",
"addr":"艮山西路107附近",
"longitude":120.18513962,
"latitude":30.27823356
},
{
"bid":312,
"title":"下城分局自行车租赁点",
"addr":"新华路与长庆街道交叉口",
"longitude":120.18302823,
"latitude":30.27069854
},
{
"bid":313,
"title":"教工路106号自行车租赁点(文三路)",
"addr":"天目山路148号浙江大学西溪校区",
"longitude":120.13145730,
"latitude":30.27987509
},
{
"bid":314,
"title":"教工路106号自行车租赁点(教工路)",
"addr":"教工路附近",
"longitude":120.13141914,
"latitude":30.28061396
},
{
"bid":315,
"title":"石祥路上塘路口北自行车租赁点",
"addr":"中河中路230-232附近",
"longitude":120.16743336,
"latitude":30.25790684
},
{
"bid":316,
"title":"东园1幢自行车租赁点",
"addr":"刀茅巷177-1附近",
"longitude":120.18167656,
"latitude":30.26805536
},
{
"bid":317,
"title":"中河中路230号自行车租赁点",
"addr":"中河中路230号",
"longitude":120.16746045,
"latitude":30.25787390
},
{
"bid":318,
"title":"湖滨路三公园自行车租赁点",
"addr":"湖滨路25附近",
"longitude":120.15674566,
"latitude":30.25651801
},
{
"bid":319,
"title":"湖滨路三公园自行车租赁点",
"addr":"湖滨路100附近",
"longitude":120.15671758,
"latitude":30.25650396
},
{
"bid":320,
"title":"15路花园西村站自行车租赁点",
"addr":"天目山路148号浙江大学西溪校区",
"longitude":120.13134390,
"latitude":30.28129879
},
{
"bid":321,
"title":"马市街220号自行车租赁点",
"addr":"马市街220",
"longitude":120.17166085,
"latitude":30.25948765
},
{
"bid":322,
"title":"艮山西路银河证券自行车租赁点",
"addr":"旋凯路451号锦江之星旅馆(凯旋路店)附近",
"longitude":120.18536630,
"latitude":30.27784800
},
{
"bid":323,
"title":"地铁龙翔桥站C1自行车租赁点",
"addr":"东坡路16附近",
"longitude":120.15798032,
"latitude":30.25638730
},
{
"bid":324,
"title":"卖渔桥码头自行车租赁点",
"addr":"湖墅南路信义港口",
"longitude":120.14154889,
"latitude":30.29814243
},
{
"bid":325,
"title":"平海路湖滨路口自行车租赁点",
"addr":"湖滨路23附近",
"longitude":120.15720002,
"latitude":30.25634086
},
{
"bid":326,
"title":"霞湾巷大兜路口自行车租赁点",
"addr":"霞湾巷1号杭办大厦附近",
"longitude":120.14263780,
"latitude":30.29889413
},
{
"bid":327,
"title":"娱庐自行车租赁点",
"addr":"机场路里街附近",
"longitude":120.18544112,
"latitude":30.28247967
},
{
"bid":328,
"title":"省老年大学北自行车租赁点",
"addr":"曙光路67号常青园附近",
"longitude":120.13512455,
"latitude":30.26728455
},
{
"bid":329,
"title":"绍兴路390号自行车租赁点",
"addr":"杨六堡路390附近",
"longitude":120.16113978,
"latitude":30.30322252
},
{
"bid":330,
"title":"板桥路口自行车租赁点",
"addr":"板桥路6附近",
"longitude":120.16156697,
"latitude":30.25634697
},
{
"bid":331,
"title":"上塘路通讯市场自行车租赁点",
"addr":"上塘路398附近",
"longitude":120.15066007,
"latitude":30.30247746
},
{
"bid":332,
"title":"吴山路口自行车租赁点",
"addr":"平海路83附近",
"longitude":120.16043763,
"latitude":30.25617487
},
{
"bid":333,
"title":"金秋大厦自行车租赁点",
"addr":"新华路与长庆街道交叉口",
"longitude":120.17433771,
"latitude":30.26048556
},
{
"bid":334,
"title":"青春中学自行车租赁点",
"addr":"凤起路20附近",
"longitude":120.18129558,
"latitude":30.26660380
},
{
"bid":335,
"title":"延安路平海路口自行车租赁点",
"addr":"延安路235号附近",
"longitude":120.15931531,
"latitude":30.25602080
},
{
"bid":336,
"title":"三里新城南苑40幢自行车租赁点",
"addr":"董家桥路296-8附近",
"longitude":120.18151404,
"latitude":30.29281760
},
{
"bid":337,
"title":"刀矛巷169号自行车租赁点",
"addr":"凤起路14附近",
"longitude":120.18174584,
"latitude":30.26709557
},
{
"bid":338,
"title":"顾家畈尧典桥路口自行车租赁点",
"addr":"顾家畈路107附近",
"longitude":120.18154613,
"latitude":30.29280966
},
{
"bid":339,
"title":"京惠花园自行车租赁点",
"addr":"机场路25附近",
"longitude":120.18605912,
"latitude":30.27945305
},
{
"bid":340,
"title":"中河中路平海路口自行车租赁点",
"addr":"中河中路253附近",
"longitude":120.16679052,
"latitude":30.25699771
},
{
"bid":341,
"title":"莫干山路草营巷口自行车租赁点",
"addr":"湖墅南路信义巷口",
"longitude":120.13742211,
"latitude":30.29550219
},
{
"bid":342,
"title":"德苑路北自行车租赁点",
"addr":"德苑路83-2附近",
"longitude":120.15614194,
"latitude":30.30369721
},
{
"bid":343,
"title":"黄龙路自行车租赁点",
"addr":"黄龙路7号",
"longitude":120.13174061,
"latitude":30.27260018
},
{
"bid":344,
"title":"天城路自行车租赁点",
"addr":"天城路172附近",
"longitude":120.18529237,
"latitude":30.28644700
},
{
"bid":345,
"title":"机场路城东桥自行车租赁点",
"addr":"机场路57附近",
"longitude":120.18636485,
"latitude":30.28099343
},
{
"bid":346,
"title":"小天竺社区自行车租赁点",
"addr":"回龙庙前8附近",
"longitude":120.17883070,
"latitude":30.26327362
},
{
"bid":347,
"title":"文一路110号自行车租赁点",
"addr":"文一路117附近",
"longitude":120.13329595,
"latitude":30.29062258
},
{
"bid":348,
"title":"平海路五号自行车租赁点",
"addr":"平海路5号",
"longitude":120.16583169,
"latitude":30.25647095
},
{
"bid":349,
"title":"黄龙恒励大厦自行车租赁点",
"addr":"黄龙路5附近",
"longitude":120.13179380,
"latitude":30.27185233
},
{
"bid":350,
"title":"黄龙路跑马场路口自行车租赁点",
"addr":"跑马场路和黄龙路的交叉口附近",
"longitude":120.13221396,
"latitude":30.27047205
},
{
"bid":351,
"title":"凯旋路北口站自行车租赁点",
"addr":"体育场路高架附近",
"longitude":120.18643747,
"latitude":30.27602905
},
{
"bid":352,
"title":"黄龙体育馆正门北自行车租赁点",
"addr":"跑马场路和黄龙路的交叉口附近",
"longitude":120.13189315,
"latitude":30.27068158
},
{
"bid":353,
"title":"再行路德胜口自行车租赁点",
"addr":"德胜路38附近",
"longitude":120.16780773,
"latitude":30.30292806
},
{
"bid":354,
"title":"环城东路215号自行车租赁点",
"addr":"环城东路215号",
"longitude":120.18311072,
"latitude":30.26761197
},
{
"bid":355,
"title":"刀矛巷151号自行车租赁点",
"addr":"刀茅巷151号",
"longitude":120.18161461,
"latitude":30.26535249
},
{
"bid":356,
"title":"307路黄龙体育中心站自行车租赁点",
"addr":"黄龙路6附近",
"longitude":120.13234339,
"latitude":30.26912735
},
{
"bid":357,
"title":"湖墅路卖渔桥站自行车租赁点",
"addr":"湖墅北路18号",
"longitude":120.14065337,
"latitude":30.29929085
},
{
"bid":358,
"title":"仁和路惠兴路口西北角自行车租赁点",
"addr":"仁和路惠兴路口西北角",
"longitude":120.16334436,
"latitude":30.25535637
},
{
"bid":359,
"title":"光复路166号自行车租赁点",
"addr":"光复路166号",
"longitude":120.16574048,
"latitude":30.25579384
},
{
"bid":360,
"title":"仁和路西自行车租赁点",
"addr":"东坡路4附近",
"longitude":120.15840771,
"latitude":30.25492021
},
{
"bid":361,
"title":"机场路肿瘤医院自行车租赁点",
"addr":"机场路里街102附近",
"longitude":120.18674564,
"latitude":30.28440875
},
{
"bid":362,
"title":"红会医院东自行车租赁点(浙江中医学院附属医院东南)",
"addr":"环城东路207附近",
"longitude":120.18307267,
"latitude":30.26691296
},
{
"bid":363,
"title":"庆春路46号自行车租赁点",
"addr":"庆春路46号",
"longitude":120.17670970,
"latitude":30.26056195
},
{
"bid":364,
"title":"德胜路北自行车租赁点",
"addr":"德胜路30附近",
"longitude":120.16895114,
"latitude":30.30298321
},
{
"bid":365,
"title":"黄体中心东门北自行车租赁点",
"addr":"黄龙路附近",
"longitude":120.13190027,
"latitude":30.26944170
},
{
"bid":366,
"title":"钱江市场点自行车租赁点",
"addr":"香积寺路323附近",
"longitude":120.14973932,
"latitude":30.30366770
},
{
"bid":367,
"title":"延安路213号自行车租赁点",
"addr":"延安路213号",
"longitude":120.15940769,
"latitude":30.25473908
},
{
"bid":368,
"title":"凯旋路电杆一自行车租赁点",
"addr":"凯旋支路和凯旋路的交叉口附近",
"longitude":120.18664825,
"latitude":30.27379963
},
{
"bid":369,
"title":"机场路机场里街自行车租赁点",
"addr":"机场路93附近",
"longitude":120.18704748,
"latitude":30.28453426
},
{
"bid":370,
"title":"浣纱路二十十号自行车租赁点",
"addr":"浣纱路200号",
"longitude":120.16211674,
"latitude":30.25479412
},
{
"bid":371,
"title":"香积寺路西口自行车租赁点",
"addr":"香积寺路310附近",
"longitude":120.14921380,
"latitude":30.30384675
},
{
"bid":372,
"title":"杭州市公共自行车租赁点(清吟街)",
"addr":"清吟街",
"longitude":120.16931011,
"latitude":30.25623151
},
{
"bid":373,
"title":"香积寺路口自行车租赁点",
"addr":"上塘路422号",
"longitude":120.14920277,
"latitude":30.30388573
},
{
"bid":374,
"title":"刀矛巷菜场自行车租赁点",
"addr":"刀矛巷市场",
"longitude":120.18155453,
"latitude":30.26413049
},
{
"bid":375,
"title":"浙江省中医院自行车租赁点",
"addr":"省中医院(邮电路52号附近)",
"longitude":120.16172660,
"latitude":30.25454241
},
{
"bid":376,
"title":"天成路199号前自行车租赁点",
"addr":"天城路199附近",
"longitude":120.18696310,
"latitude":30.28616195
},
{
"bid":377,
"title":"文一路教工路口自行车租赁点",
"addr":"文一路127附近",
"longitude":120.13158371,
"latitude":30.29055316
},
{
"bid":378,
"title":"黄姑山路黄姑山横路口自行车租赁点",
"addr":"黄姑山路10附近",
"longitude":120.12899363,
"latitude":30.27665506
},
{
"bid":379,
"title":"香积寺路283号自行车租赁点",
"addr":"香积寺路279附近",
"longitude":120.15176307,
"latitude":30.30459718
},
{
"bid":380,
"title":"21路黄龙体育中心站自行车租赁点",
"addr":"黄龙路附近",
"longitude":120.13248790,
"latitude":30.26729872
},
{
"bid":381,
"title":"万安城市花园自行车租赁点",
"addr":"直大方伯46附近",
"longitude":120.17405507,
"latitude":30.25812824
},
{
"bid":382,
"title":"环城东路凤起路口东北角自行车租赁点",
"addr":"环城东路196附近",
"longitude":120.18360524,
"latitude":30.26640096
},
{
"bid":383,
"title":"凯旋路电杆二自行车租赁点",
"addr":"凯旋路365附近",
"longitude":120.18670854,
"latitude":30.27227487
},
{
"bid":384,
"title":"B2线工商大学站自行车租赁点",
"addr":"教工路149附近",
"longitude":120.13047318,
"latitude":30.28848185
},
{
"bid":385,
"title":"b2线浙江工商大学站自行车租赁点",
"addr":"秋实路附近",
"longitude":120.13041103,
"latitude":30.28836778
},
{
"bid":386,
"title":"庆春门北自行车租赁点",
"addr":"环城东路193附近",
"longitude":120.18292738,
"latitude":30.26535084
},
{
"bid":387,
"title":"艮山西路北自行车租赁点",
"addr":"艮山西路226附近",
"longitude":120.18809891,
"latitude":30.27846368
},
{
"bid":388,
"title":"杨六村点自行车租赁点",
"addr":"大功巷和绍兴路400弄的交叉口附近",
"longitude":120.16302424,
"latitude":30.30513182
},
{
"bid":389,
"title":"神农宾馆自行车租赁点",
"addr":"凯旋路341附近",
"longitude":120.18649804,
"latitude":30.27115861
},
{
"bid":390,
"title":"德胜路十号自行车租赁点",
"addr":"德胜路10附近",
"longitude":120.17017175,
"latitude":30.30343645
},
{
"bid":391,
"title":"德胜路10号自行车租赁点",
"addr":"德胜路10附近",
"longitude":120.17000925,
"latitude":30.30354813
},
{
"bid":392,
"title":"解放路北自行车租赁点",
"addr":"浣纱路200号",
"longitude":120.16107069,
"latitude":30.25398223
},
{
"bid":393,
"title":"杭氧宿舍自行车租赁点",
"addr":"东新路403附近",
"longitude":120.17349775,
"latitude":30.30221481
},
{
"bid":394,
"title":"黄龙路曙光路口自行车租赁点",
"addr":"黄龙路附近",
"longitude":120.13201174,
"latitude":30.26717806
},
{
"bid":395,
"title":"香积寺路247号自行车租赁点",
"addr":"香积寺路253附近",
"longitude":120.15295147,
"latitude":30.30527123
},
{
"bid":396,
"title":"一公园自行车租赁点",
"addr":"湖滨路9附近",
"longitude":120.15840079,
"latitude":30.25373229
},
{
"bid":397,
"title":"马市街清吟街口自行车租赁点",
"addr":"清吟街74附近",
"longitude":120.17172128,
"latitude":30.25639402
},
{
"bid":398,
"title":"机床集团自行车租赁点(环城东路)",
"addr":"环城东路凤起高架南",
"longitude":120.18285024,
"latitude":30.26445678
},
{
"bid":399,
"title":"顾家畈尧典桥路口自行车租赁点",
"addr":"顾家畈路161-163附近",
"longitude":120.18242141,
"latitude":30.29570092
},
{
"bid":400,
"title":"三里亭苑三区35幢自行车租赁点",
"addr":"顾家畈路165附近",
"longitude":120.18252370,
"latitude":30.29572210
},
{
"bid":401,
"title":"董家桥路机场路一巷路口自行车租赁点",
"addr":"董家桥路164-166附近",
"longitude":120.18594083,
"latitude":30.29097466
},
{
"bid":402,
"title":"长德弄212号自行车租赁点",
"addr":"再行里47附近",
"longitude":120.16522078,
"latitude":30.30539891
},
{
"bid":403,
"title":"香积寺路227号自行车租赁点",
"addr":"香积寺路225附近",
"longitude":120.15411983,
"latitude":30.30580228
},
{
"bid":404,
"title":"庆春路二五号自行车租赁点",
"addr":"庆春路25号远洋大厦",
"longitude":120.17887708,
"latitude":30.26029096
},
{
"bid":405,
"title":"米兰公寓自行车租赁点",
"addr":"米兰公寓",
"longitude":120.18118865,
"latitude":30.26205301
},
{
"bid":406,
"title":"贾家弄小学自行车租赁点",
"addr":"贾家弄23附近",
"longitude":120.13804339,
"latitude":30.29967869
},
{
"bid":407,
"title":"开元职高自行车租赁点",
"addr":"长德弄43附近",
"longitude":120.16593892,
"latitude":30.30553124
},
{
"bid":408,
"title":"余杭塘路莫干山路西南角自行车租赁点",
"addr":"余杭塘路27附近",
"longitude":120.13398421,
"latitude":30.29615697
},
{
"bid":409,
"title":"闸弄口街道自行车租赁点",
"addr":"机场路一巷71号附近",
"longitude":120.18603603,
"latitude":30.29187773
},
{
"bid":410,
"title":"地铁闸弄口站D自行车租赁点",
"addr":"天城路10幢附近",
"longitude":120.18834892,
"latitude":30.28677827
},
{
"bid":411,
"title":"马市街九十号自行车租赁点",
"addr":"马市街90号",
"longitude":120.17170129,
"latitude":30.25563005
},
{
"bid":412,
"title":"红梅社区自行车租赁点(顾家畈路)",
"addr":"亭苑街三里亭路口,三里亭苑23幢",
"longitude":120.18374523,
"latitude":30.29545030
},
{
"bid":413,
"title":"刀茅巷9号自行车租赁点",
"addr":"刀茅巷9号",
"longitude":120.18106535,
"latitude":30.26136685
},
{
"bid":414,
"title":"清吟街东自行车租赁点",
"addr":"清吟街40附近",
"longitude":120.17302519,
"latitude":30.25603749
},
{
"bid":415,
"title":"再行路自行车租赁点",
"addr":"长德弄61附近",
"longitude":120.16648854,
"latitude":30.30579525
},
{
"bid":416,
"title":"三里亭机场路一巷自行车租赁点",
"addr":"机场路一巷111-113号附近",
"longitude":120.18577622,
"latitude":30.29279218
},
{
"bid":417,
"title":"天城路机场路东南角自行车租赁点",
"addr":"机场路34附近",
"longitude":120.18855849,
"latitude":30.28686762
},
{
"bid":418,
"title":"沈塘湾自行车租赁点",
"addr":"上塘路455附近",
"longitude":120.14705157,
"latitude":30.30489987
},
{
"bid":419,
"title":"大关中心站自行车租赁点",
"addr":"香积寺路224附近",
"longitude":120.15464730,
"latitude":30.30663614
},
{
"bid":420,
"title":"上塘路四百五十五号自行车租赁点",
"addr":"上塘路455附近",
"longitude":120.14722906,
"latitude":30.30507115
},
{
"bid":421,
"title":"机场路一巷路口自行车租赁点",
"addr":"机场路121附近",
"longitude":120.18837588,
"latitude":30.28817417
},
{
"bid":422,
"title":"解放路一七八号自行车租赁点",
"addr":"解放路178号",
"longitude":120.16403763,
"latitude":30.25297487
},
{
"bid":423,
"title":"艮山西路二自行车租赁点",
"addr":"艮山西路101附近",
"longitude":120.19002726,
"latitude":30.27824898
},
{
"bid":424,
"title":"元华商城自行车租赁点",
"addr":"元华商城",
"longitude":120.15948210,
"latitude":30.25245140
},
{
"bid":425,
"title":"小营公园自行车租赁点",
"addr":"马市街22-17附近",
"longitude":120.17162111,
"latitude":30.25494295
},
{
"bid":426,
"title":"闸弄口街道自行车租赁点",
"addr":"机场路一巷94附近",
"longitude":120.18886730,
"latitude":30.28749808
},
{
"bid":427,
"title":"南山路282号自行车租赁点",
"addr":"南山路282号",
"longitude":120.15809600,
"latitude":30.25239784
},
{
"bid":428,
"title":"凯旋路自行车租赁点(凯旋路)",
"addr":"凯旋路251附近",
"longitude":120.18643923,
"latitude":30.26695589
},
{
"bid":429,
"title":"天城路机场路东北角自行车租赁点",
"addr":"天城路138附近",
"longitude":120.18891843,
"latitude":30.28755216
},
{
"bid":430,
"title":"刀矛巷庆春路口自行车租赁点",
"addr":"刀矛巷庆春路口",
"longitude":120.18098318,
"latitude":30.26049877
},
{
"bid":431,
"title":"解放路一四八号自行车租赁点",
"addr":"解放路148号",
"longitude":120.16608072,
"latitude":30.25308470
},
{
"bid":432,
"title":"大学路口自行车租赁点(大学路)",
"addr":"大学路91-1号",
"longitude":120.17821331,
"latitude":30.25823892
},
{
"bid":433,
"title":"大学路116号自行车租赁点",
"addr":"大学路116附近",
"longitude":120.17833466,
"latitude":30.25824714
},
{
"bid":434,
"title":"再行里三塘汶园自行车租赁点",
"addr":"再行里128附近",
"longitude":120.16783654,
"latitude":30.30617174
},
{
"bid":435,
"title":"学院路126号自行车租赁点",
"addr":"学院路130中宙大厦附近",
"longitude":120.12632295,
"latitude":30.28201510
},
{
"bid":436,
"title":"小营巷民居自行车租赁点",
"addr":"直大方伯57附近",
"longitude":120.17388678,
"latitude":30.25555914
},
{
"bid":437,
"title":"葵巷社区自行车租赁点",
"addr":"建国中路166-3附近",
"longitude":120.17618448,
"latitude":30.25668131
},
{
"bid":438,
"title":"和睦路贾家路口自行车租赁点",
"addr":"和睦路37附近",
"longitude":120.13617349,
"latitude":30.29987780
},
{
"bid":439,
"title":"三塘汶苑64路自行车租赁点",
"addr":"再行路92附近",
"longitude":120.16635808,
"latitude":30.30670689
},
{
"bid":440,
"title":"浙二医院西侧自行车租赁点",
"addr":"马市街17附近",
"longitude":120.17166728,
"latitude":30.25443308
},
{
"bid":441,
"title":"杭州市公共自行车租赁点(解放路)",
"addr":"解放路140附近",
"longitude":120.16792924,
"latitude":30.25319616
},
{
"bid":442,
"title":"凯西社区自行车租赁点",
"addr":"凯旋路188附近",
"longitude":120.18605929,
"latitude":30.26539737
},
{
"bid":443,
"title":"青藤茶室自行车租赁点",
"addr":"南山路272附近",
"longitude":120.15753839,
"latitude":30.25190085
},
{
"bid":444,
"title":"红梅社区自行车租赁点(竹苑巷)",
"addr":"顾家畈路107附近",
"longitude":120.18515222,
"latitude":30.29556578
},
{
"bid":445,
"title":"德胜路东新路口自行车租赁点",
"addr":"德胜快速路出口",
"longitude":120.17333807,
"latitude":30.30460324
},
{
"bid":446,
"title":"长青小学自行车租赁点",
"addr":"再行路附近",
"longitude":120.16608423,
"latitude":30.30701034
},
{
"bid":447,
"title":"顾家畈路红梅社区自行车租赁点",
"addr":"亭苑街附近",
"longitude":120.18445315,
"latitude":30.29664043
},
{
"bid":448,
"title":"庆春路九号自行车租赁点(长堤明苑西北)",
"addr":"庆春路9号",
"longitude":120.18156991,
"latitude":30.26009986
},
{
"bid":449,
"title":"公交三十路塘河新村站自行车租赁点",
"addr":"塘河路25附近",
"longitude":120.13310588,
"latitude":30.29760954
},
{
"bid":450,
"title":"绍兴路公交加油站自行车租赁点",
"addr":"绍兴路470附近",
"longitude":120.15685167,
"latitude":30.30799201
},
{
"bid":451,
"title":"三里新城桂苑自行车租赁点",
"addr":"董家桥路三里新城·桂苑附近",
"longitude":120.18815999,
"latitude":30.29170542
},
{
"bid":452,
"title":"苑中路16号自行车租赁点",
"addr":"苑中路16附近",
"longitude":120.15198347,
"latitude":30.30749623
},
{
"bid":453,
"title":"翰林街101号自行车租赁点",
"addr":"翰林街101号",
"longitude":120.17962443,
"latitude":30.25826649
},
{
"bid":454,
"title":"三塘汶苑82路自行车租赁点",
"addr":"再行路150附近",
"longitude":120.16871512,
"latitude":30.30673132
},
{
"bid":455,
"title":"濮家运河广场自行车租赁点",
"addr":"洑家井21附近",
"longitude":120.19094626,
"latitude":30.28443390
},
{
"bid":456,
"title":"池塘庙路自行车租赁点",
"addr":"池塘庙路242-254附近",
"longitude":120.18304294,
"latitude":30.29873969
},
{
"bid":457,
"title":"海关路学院路口自行车租赁点",
"addr":"学院路130附近",
"longitude":120.12542189,
"latitude":30.28207898
},
{
"bid":458,
"title":"大学路87号自行车租赁点",
"addr":"大学路87号",
"longitude":120.17822946,
"latitude":30.25695105
},
{
"bid":459,
"title":"杭州市旅委门口自行车租赁点",
"addr":"延安路228附近",
"longitude":120.15977407,
"latitude":30.25119704
},
{
"bid":460,
"title":"和睦路47号自行车租赁点",
"addr":"和睦路150附近",
"longitude":120.13615836,
"latitude":30.30102265
},
{
"bid":461,
"title":"塘河新村十幢自行车租赁点",
"addr":"塘河路32附近",
"longitude":120.13221368,
"latitude":30.29742029
},
{
"bid":462,
"title":"学院路文三路口自行车租赁点",
"addr":"学院路78附近",
"longitude":120.12511652,
"latitude":30.27836998
},
{
"bid":463,
"title":"艮山西路动物医院自行车租赁点",
"addr":"艮山西路277附近",
"longitude":120.19160856,
"latitude":30.27836861
},
{
"bid":464,
"title":"大关苑路42号自行车租赁点",
"addr":"大关苑路40附近",
"longitude":120.14990146,
"latitude":30.30753152
},
{
"bid":465,
"title":"将军路五六号自行车租赁点",
"addr":"柳营路22附近",
"longitude":120.15775110,
"latitude":30.25097931
},
{
"bid":466,
"title":"浙江电信自行车租赁点",
"addr":"延安路159附近",
"longitude":120.15931473,
"latitude":30.25097821
},
{
"bid":467,
"title":"公交三公司自行车租赁点",
"addr":"香积寺路177号",
"longitude":120.15914741,
"latitude":30.30858718
},
{
"bid":468,
"title":"三里亭苑自行车租赁点",
"addr":"顾家畈路99附近",
"longitude":120.18657225,
"latitude":30.29536028
},
{
"bid":469,
"title":"凯旋路一百七十号自行车租赁点",
"addr":"凯旋路207附近",
"longitude":120.18575962,
"latitude":30.26322804
},
{
"bid":470,
"title":"公建监控中心自行车租赁点",
"addr":"三里亭路17附近",
"longitude":120.18617508,
"latitude":30.29596952
},
{
"bid":471,
"title":"将军路延安路口自行车租赁点",
"addr":"将军路31附近",
"longitude":120.15881225,
"latitude":30.25084828
},
{
"bid":472,
"title":"沁园雅舍自行车租赁点",
"addr":"机场路167附近",
"longitude":120.18991599,
"latitude":30.28989060
},
{
"bid":473,
"title":"庆春门自行车租赁点",
"addr":"环城东路杭州古城墙陈列馆附近",
"longitude":120.18332494,
"latitude":30.26032199
},
{
"bid":474,
"title":"德胜路482号自行车租赁点",
"addr":"德胜中路474附近",
"longitude":120.17505513,
"latitude":30.30501139
},
{
"bid":475,
"title":"文野巷自行车租赁点",
"addr":"文野巷17附近",
"longitude":120.16864585,
"latitude":30.30744411
},
{
"bid":476,
"title":"杭州市公共自行车租赁点(解放路)",
"addr":"解放路佑圣观路口",
"longitude":120.17096031,
"latitude":30.25285188
},
{
"bid":477,
"title":"翰林花园自行车租赁点",
"addr":"翰林花园",
"longitude":120.18264605,
"latitude":30.25962384
},
{
"bid":478,
"title":"艮山支三路自行车租赁点",
"addr":"艮山支三路4附近",
"longitude":120.19212782,
"latitude":30.28019329
},
{
"bid":479,
"title":"中河中路二三十号自行车租赁点",
"addr":"凯旋路205附近",
"longitude":120.18603641,
"latitude":30.26313453
},
{
"bid":480,
"title":"平湖秋月自行车租赁点",
"addr":"孤山后山路1号",
"longitude":120.14138612,
"latitude":30.25458038
},
{
"bid":481,
"title":"文野巷13号自行车租赁点",
"addr":"文野巷19附近",
"longitude":120.16896982,
"latitude":30.30743672
},
{
"bid":482,
"title":"青年路19-15号自行车租赁点",
"addr":"青年路21附近",
"longitude":120.16389436,
"latitude":30.25104275
},
{
"bid":483,
"title":"丰乐桥南自行车租赁点",
"addr":"中河中路171附近",
"longitude":120.16715104,
"latitude":30.25161583
},
{
"bid":484,
"title":"杭州西湖风景名胜区自行车租赁点",
"addr":"龙井路1号杭州西湖风景名胜区内",
"longitude":120.14112842,
"latitude":30.25457696
},
{
"bid":485,
"title":"杭州财政局自行车租赁点",
"addr":"民权路16附近",
"longitude":120.16790629,
"latitude":30.25170624
},
{
"bid":486,
"title":"好来登大酒店自行车租赁点",
"addr":"香积寺路129附近",
"longitude":120.16178824,
"latitude":30.30892305
},
{
"bid":487,
"title":"玉古路汇丰公寓自行车租赁点",
"addr":"玉古路179-180附近",
"longitude":120.12511697,
"latitude":30.27308249
},
{
"bid":488,
"title":"教工路塘河路口自行车租赁点",
"addr":"教工路518附近",
"longitude":120.12994727,
"latitude":30.29603232
},
{
"bid":489,
"title":"浙二医院南自行车租赁点",
"addr":"马市街13附近",
"longitude":120.17181386,
"latitude":30.25273649
},
{
"bid":490,
"title":"开元路78-10号自行车租赁点",
"addr":"开元路78-11附近",
"longitude":120.15775918,
"latitude":30.25022839
},
{
"bid":491,
"title":"求是路曙光路口自行车租赁点",
"addr":"曙光路79附近",
"longitude":120.12811649,
"latitude":30.26562493
},
{
"bid":492,
"title":"再行路264号自行车租赁点",
"addr":"再行路272附近",
"longitude":120.16587848,
"latitude":30.30869475
},
{
"bid":493,
"title":"开元路七八-一十号自行车租赁点",
"addr":"开元路78-10附近",
"longitude":120.15772208,
"latitude":30.25014832
},
{
"bid":494,
"title":"香积寺路一十五号自行车租赁点",
"addr":"香积寺路109附近",
"longitude":120.16331478,
"latitude":30.30912089
},
{
"bid":495,
"title":"丰家兜自行车租赁点",
"addr":"民权路5附近",
"longitude":120.16913397,
"latitude":30.25163155
},
{
"bid":496,
"title":"香积寺路162号自行车租赁点",
"addr":"香积寺路162号",
"longitude":120.16273403,
"latitude":30.30923079
},
{
"bid":497,
"title":"学院路202号自行车租赁点",
"addr":"学院路281附近",
"longitude":120.12470995,
"latitude":30.28619070
},
{
"bid":498,
"title":"翰林园街自行车租赁点",
"addr":"翰林园街",
"longitude":120.18209659,
"latitude":30.25825197
},
{
"bid":499,
"title":"庆春门站自行车租赁点",
"addr":"环城东路110号附近",
"longitude":120.18299611,
"latitude":30.25898552
},
{
"bid":500,
"title":"香积寺路105号自行车租赁点",
"addr":"香积寺路105号",
"longitude":120.16351236,
"latitude":30.30920525
},
{
"bid":501,
"title":"香积寺路-六二号自行车租赁点",
"addr":"香积寺路162附近",
"longitude":120.16262671,
"latitude":30.30932757
},
{
"bid":502,
"title":"华星路自行车租赁点",
"addr":"学院路119-1附近",
"longitude":120.12384240,
"latitude":30.28176413
},
{
"bid":503,
"title":"亭苑街三里亭路口自行车租赁点",
"addr":"三里亭路34附近",
"longitude":120.18645276,
"latitude":30.29722287
},
{
"bid":504,
"title":"三宝西路莫干山路西南角自行车租赁点",
"addr":"三宝西路2号附近",
"longitude":120.13246412,
"latitude":30.29955341
},
{
"bid":505,
"title":"开元路延安路口自行车租赁点(延安路)",
"addr":"延安路145附近",
"longitude":120.15945323,
"latitude":30.24991355
},
{
"bid":506,
"title":"大关路大兜路口自行车租赁点",
"addr":"大关路108附近",
"longitude":120.13906568,
"latitude":30.30458771
},
{
"bid":507,
"title":"自行车租赁点(绍兴路)",
"addr":"绍兴路467附近",
"longitude":120.15487472,
"latitude":30.30958620
},
{
"bid":508,
"title":"12路三塘小区站自行车租赁点",
"addr":"香积寺路150号",
"longitude":120.16373300,
"latitude":30.30940464
},
{
"bid":509,
"title":"天城路南175号自行车租赁点",
"addr":"天城路173附近",
"longitude":120.19188251,
"latitude":30.28795309
},
{
"bid":510,
"title":"青年路开元路口自行车租赁点",
"addr":"青年路2附近",
"longitude":120.16401579,
"latitude":30.25016405
},
{
"bid":511,
"title":"翠苑一区3幢自行车租赁点",
"addr":"学院路137-1附近",
"longitude":120.12442627,
"latitude":30.28667531
},
{
"bid":512,
"title":"直大方伯解放路口自行车租赁点",
"addr":"解放路78附近",
"longitude":120.17386093,
"latitude":30.25283931
},
{
"bid":513,
"title":"延安南路自行车租赁点",
"addr":"开元路53附近",
"longitude":120.15998883,
"latitude":30.24972156
},
{
"bid":514,
"title":"黄体中心南门自行车租赁点",
"addr":"求是路2号",
"longitude":120.12733665,
"latitude":30.26588391
},
{
"bid":515,
"title":"三里亭站自行车租赁点",
"addr":"三里亭路40附近",
"longitude":120.18631529,
"latitude":30.29812653
},
{
"bid":516,
"title":"三塘北村自行车租赁点",
"addr":"香积寺路与白石巷交叉口",
"longitude":120.16232978,
"latitude":30.30983196
},
{
"bid":517,
"title":"解放路89号自行车租赁点",
"addr":"解放路89号",
"longitude":120.17384290,
"latitude":30.25259030
},
{
"bid":518,
"title":"学院路文一路口自行车租赁点",
"addr":"文一路481附近",
"longitude":120.12536106,
"latitude":30.29028106
},
{
"bid":519,
"title":"大关苑路58号自行车租赁点",
"addr":"大关苑路27附近",
"longitude":120.14970075,
"latitude":30.30921397
},
{
"bid":520,
"title":"德胜路426号自行车租赁点",
"addr":"德胜中路432附近",
"longitude":120.17713822,
"latitude":30.30556817
},
{
"bid":521,
"title":"塘河北村五幢自行车租赁点",
"addr":"三宝西路48附近",
"longitude":120.13097752,
"latitude":30.29895840
},
{
"bid":522,
"title":"公交三公司东门自行车租赁点",
"addr":"白石路和沿塘路的交叉口附近",
"longitude":120.15961366,
"latitude":30.31022184
},
{
"bid":523,
"title":"开元路比胜庙巷口自行车租赁点",
"addr":"开元路38附近",
"longitude":120.16437490,
"latitude":30.24974376
},
{
"bid":524,
"title":"三里新城梅苑(一)自行车租赁点",
"addr":"机场路137附近",
"longitude":120.18958071,
"latitude":30.29425356
},
{
"bid":525,
"title":"涌金门自行车租赁点",
"addr":"龙井路1号杭州西湖风景名胜区内",
"longitude":120.15587671,
"latitude":30.24933100
},
{
"bid":526,
"title":"玉古路公交中心自行车租赁点",
"addr":"玉古路171附近",
"longitude":120.12441459,
"latitude":30.27085885
},
{
"bid":527,
"title":"三里新城梅苑(二)自行车租赁点",
"addr":"工农路附近",
"longitude":120.19027368,
"latitude":30.29340183
},
{
"bid":528,
"title":"湖墅北路83号自行车租赁点",
"addr":"湖墅南路信义巷口(南面人行道)",
"longitude":120.13607391,
"latitude":30.30375720
},
{
"bid":529,
"title":"湖墅北路八十号自行车租赁点",
"addr":"湖墅北路84附近",
"longitude":120.13600774,
"latitude":30.30378510
},
{
"bid":530,
"title":"天杭实验学校自行车租赁店",
"addr":"顾家畈路55附近",
"longitude":120.18888766,
"latitude":30.29588521
},
{
"bid":531,
"title":"檀香园自行车租赁点",
"addr":"檀香园",
"longitude":120.18249283,
"latitude":30.25697578
},
{
"bid":532,
"title":"杭州天杭试验学校自行车租赁点",
"addr":"顾家畈路59附近",
"longitude":120.18903106,
"latitude":30.29589445
},
{
"bid":533,
"title":"上塘路503号自行车租赁点",
"addr":"上塘路505号-517号附近",
"longitude":120.14401681,
"latitude":30.30816633
},
{
"bid":534,
"title":"黄龙公元大厦自行车租赁点",
"addr":"求是路附近",
"longitude":120.12585721,
"latitude":30.26639301
},
{
"bid":535,
"title":"三里家苑二区自行车租赁点",
"addr":"三里亭路129附近",
"longitude":120.18508660,
"latitude":30.30077907
},
{
"bid":536,
"title":"载歌巷三塘沁园自行车租赁点",
"addr":"香积寺路33附近",
"longitude":120.16845510,
"latitude":30.30968448
},
{
"bid":537,
"title":"艮秋墩西北匝道02-1自行车租赁点",
"addr":"秋涛北路196附近",
"longitude":120.19452640,
"latitude":30.27815938
},
{
"bid":538,
"title":"艮秋墩西北匝道十二自行车租赁点",
"addr":"艮山西路263附近",
"longitude":120.19454143,
"latitude":30.27823440
},
{
"bid":539,
"title":"西湖大道二五二号自行车租赁点",
"addr":"西湖大道250附近",
"longitude":120.15955263,
"latitude":30.24859283
},
{
"bid":540,
"title":"西湖大道自行车租赁点",
"addr":"西湖大道附近",
"longitude":120.15697100,
"latitude":30.24852207
},
{
"bid":541,
"title":"涌金门自行车租赁点",
"addr":"南山路230附近",
"longitude":120.15634315,
"latitude":30.24853491
},
{
"bid":542,
"title":"西湖大道262号自行车租赁点",
"addr":"西湖大道258附近",
"longitude":120.15830895,
"latitude":30.24847954
},
{
"bid":543,
"title":"工专路华星路口自行车租赁点",
"addr":"华星路15号附近",
"longitude":120.12206559,
"latitude":30.28122615
},
{
"bid":544,
"title":"自行车租赁点(余杭塘路)",
"addr":"余杭塘路99号",
"longitude":120.12713565,
"latitude":30.29582566
},
{
"bid":545,
"title":"延安路一七六号自行车租赁点",
"addr":"延安路176号",
"longitude":120.15992374,
"latitude":30.24845653
},
{
"bid":546,
"title":"民生药厂自行车租赁点",
"addr":"余杭塘路99号",
"longitude":120.12714667,
"latitude":30.29586667
},
{
"bid":547,
"title":"南山路自行车租赁点",
"addr":"西湖大道290～附近",
"longitude":120.15639330,
"latitude":30.24842301
},
{
"bid":548,
"title":"大学路高官弄口自行车租赁点",
"addr":"大学路12附近",
"longitude":120.17792287,
"latitude":30.25326979
},
{
"bid":549,
"title":"翠苑二区4幢自行车租赁点",
"addr":"学院路292附近",
"longitude":120.12435371,
"latitude":30.29140573
},
{
"bid":550,
"title":"解放路50号自行车租赁点",
"addr":"解放路50号",
"longitude":120.17689291,
"latitude":30.25258495
},
{
"bid":551,
"title":"工专路文二路口自行车租赁点",
"addr":"文二路327-1附近",
"longitude":120.12208035,
"latitude":30.28448584
},
{
"bid":552,
"title":"安琪儿市场-1自行车租赁点",
"addr":"秋涛北路307附近",
"longitude":120.19508069,
"latitude":30.28019906
},
{
"bid":553,
"title":"延安路一二七号自行车租赁点",
"addr":"延安路176附近",
"longitude":120.15943633,
"latitude":30.24811765
},
{
"bid":554,
"title":"劳动路口自行车租赁点",
"addr":"西湖大道281号附近",
"longitude":120.15823276,
"latitude":30.24809443
},
{
"bid":555,
"title":"大关西一社区自行车租赁点",
"addr":"大关苑西路和大苑路的交叉口附近",
"longitude":120.14814622,
"latitude":30.31023412
},
{
"bid":556,
"title":"大学路口自行车租赁点(解放路)",
"addr":"解放路50附近",
"longitude":120.17735126,
"latitude":30.25251880
},
{
"bid":557,
"title":"采菱路口自行车租赁点",
"addr":"凯旋路122附近",
"longitude":120.18567278,
"latitude":30.25835930
},
{
"bid":558,
"title":"81路求是路站自行车租赁点",
"addr":"求是路30号",
"longitude":120.12456326,
"latitude":30.26677940
},
{
"bid":559,
"title":"秋涛北路天运路口自行车租赁点",
"addr":"秋涛北路248附近",
"longitude":120.19471927,
"latitude":30.28583092
},
{
"bid":560,
"title":"大关东七苑自行车租赁点",
"addr":"大关苑路62附近",
"longitude":120.14972168,
"latitude":30.31075282
},
{
"bid":561,
"title":"耀江大酒店自行车租赁点",
"addr":"秋涛北路451附近",
"longitude":120.19254795,
"latitude":30.29232772
},
{
"bid":562,
"title":"涌金广场自行车租赁点",
"addr":"南山路涌金公园内",
"longitude":120.15577754,
"latitude":30.24784893
},
{
"bid":563,
"title":"翠苑二区六幢自行车租赁点",
"addr":"文一路262附近",
"longitude":120.12406301,
"latitude":30.29205231
},
{
"bid":564,
"title":"翠苑二区8幢自行车租赁点",
"addr":"学院路296附近",
"longitude":120.12428547,
"latitude":30.29251753
},
{
"bid":565,
"title":"三塘竹苑自行车租赁点",
"addr":"香积寺路40附近",
"longitude":120.16861550,
"latitude":30.31055867
},
{
"bid":566,
"title":"翠苑11路总站自行车租赁点",
"addr":"文一路343附近",
"longitude":120.12313415,
"latitude":30.28997246
},
{
"bid":567,
"title":"大关路和睦路口自行车租赁点",
"addr":"和睦路226附近",
"longitude":120.13444870,
"latitude":30.30427372
},
{
"bid":568,
"title":"大关路和睦路口自行车租赁点",
"addr":"湖墅南路信义巷口南面人行道",
"longitude":120.13444068,
"latitude":30.30427071
},
{
"bid":569,
"title":"高官弄2自行车租赁点",
"addr":"高官弄13附近",
"longitude":120.17918958,
"latitude":30.25323611
},
{
"bid":570,
"title":"翠苑一区自行车租赁点",
"addr":"文一路343附近",
"longitude":120.12309506,
"latitude":30.29005740
},
{
"bid":571,
"title":"三塘苑自行车租赁点",
"addr":"碧桃巷49附近",
"longitude":120.16522129,
"latitude":30.31135219
},
{
"bid":572,
"title":"涌金广场自行车租赁点",
"addr":"龙井路1号西湖风景名胜区内",
"longitude":120.15569130,
"latitude":30.24767178
},
{
"bid":573,
"title":"大关路赵伍路口自行车租赁点",
"addr":"赵伍路",
"longitude":120.13392339,
"latitude":30.30412897
},
{
"bid":574,
"title":"自行车租赁点(教工路)",
"addr":"教工路596附近",
"longitude":120.12948881,
"latitude":30.30026023
},
{
"bid":575,
"title":"教工路与美都路西口自行车租赁点",
"addr":"教工路609附近",
"longitude":120.12944771,
"latitude":30.30024317
},
{
"bid":576,
"title":"6路车站自行车租赁点",
"addr":"德胜快速路",
"longitude":120.17952613,
"latitude":30.30650644
},
{
"bid":577,
"title":"杭州档案馆自行车租赁点",
"addr":"东新路123附近",
"longitude":120.17112603,
"latitude":30.31020343
},
{
"bid":578,
"title":"公交耀江大厦自行车租赁点",
"addr":"南宋御街202附近",
"longitude":120.16606108,
"latitude":30.24807305
},
{
"bid":579,
"title":"机场路秋涛路路口自行车租赁点",
"addr":"机场路201附近",
"longitude":120.19258396,
"latitude":30.29330367
},
{
"bid":580,
"title":"秋涛北路270号自行车租赁点",
"addr":"秋涛北路300附近",
"longitude":120.19421862,
"latitude":30.28982070
},
{
"bid":581,
"title":"翠苑二区29幢自行车租赁点",
"addr":"翠柏路2附近",
"longitude":120.12394968,
"latitude":30.29302507
},
{
"bid":582,
"title":"西湖大道北自行车租赁点(西湖大道)",
"addr":"西湖大道152附近",
"longitude":120.16831880,
"latitude":30.24840027
},
{
"bid":583,
"title":"三里亭社区卫生服务站自行车租赁点",
"addr":"顾家畈路附近",
"longitude":120.19108366,
"latitude":30.29619587
},
{
"bid":584,
"title":"双菱路杭九中自行车租赁点",
"addr":"双菱路150附近",
"longitude":120.19103024,
"latitude":30.26328304
},
{
"bid":585,
"title":"西湖大道南自行车租赁点",
"addr":"中河中路117附近",
"longitude":120.16736498,
"latitude":30.24802251
},
{
"bid":586,
"title":"江心岛实验小学自行车租赁点",
"addr":"三里亭路180附近",
"longitude":120.18560591,
"latitude":30.30270876
},
{
"bid":587,
"title":"胜利社区服务中心自行车租赁点",
"addr":"德胜中路377附近",
"longitude":120.18099743,
"latitude":30.30620315
},
{
"bid":588,
"title":"建国中路六号自行车租赁点",
"addr":"建国中路6附近",
"longitude":120.17516901,
"latitude":30.25035894
},
{
"bid":589,
"title":"解放路东自行车租赁点",
"addr":"长明寺巷30附近",
"longitude":120.17854881,
"latitude":30.25198504
},
{
"bid":590,
"title":"秋涛北路严加弄车站自行车租赁点",
"addr":"秋涛北路164附近",
"longitude":120.19581214,
"latitude":30.27379784
},
{
"bid":591,
"title":"自行车租赁点(建国中路)",
"addr":"建国中路4附近",
"longitude":120.17520010,
"latitude":30.25034300
},
{
"bid":592,
"title":"西湖大道柴垛桥自行车租赁点",
"addr":"中河中路136号附近",
"longitude":120.16823759,
"latitude":30.24801915
},
{
"bid":593,
"title":"太平门直街双菱路口自行车租赁点",
"addr":"太平门直街138附近",
"longitude":120.19061821,
"latitude":30.26217045
},
{
"bid":594,
"title":"茉莉花大酒店自行车租赁点",
"addr":"碧桃巷56-58附近",
"longitude":120.16532854,
"latitude":30.31218229
},
{
"bid":595,
"title":"大关路218号自行车租赁点",
"addr":"大关路216附近",
"longitude":120.14625080,
"latitude":30.31103276
},
{
"bid":596,
"title":"南山路二一八-五号自行车租赁点",
"addr":"南山路218-5附近",
"longitude":120.15549780,
"latitude":30.24685049
},
{
"bid":597,
"title":"上塘路欧尚南自行车租赁点",
"addr":"上塘路551附近",
"longitude":120.14338690,
"latitude":30.31019103
},
{
"bid":598,
"title":"定安路游泳馆自行车租赁点",
"addr":"定安路27附近",
"longitude":120.16170418,
"latitude":30.24681398
},
{
"bid":599,
"title":"横河公园自行车租赁点",
"addr":"环城东路22-8附近",
"longitude":120.18228750,
"latitude":30.25389467
},
{
"bid":600,
"title":"三塘竹园3幢自行车租赁点",
"addr":"香积寺路52号附近",
"longitude":120.16889826,
"latitude":30.31166507
},
{
"bid":601,
"title":"蟹罩纹路白石巷东南角200米自行车租赁点",
"addr":"颜三路附近",
"longitude":120.16231348,
"latitude":30.31276356
},
{
"bid":602,
"title":"蟹罩纹白石巷自行车租赁点",
"addr":"白石巷118附近",
"longitude":120.16058231,
"latitude":30.31289632
},
{
"bid":603,
"title":"三里家园1自行车租赁点",
"addr":"百田巷105-118附近",
"longitude":120.18551259,
"latitude":30.30336052
},
{
"bid":604,
"title":"大关苑路73号自行车租赁点",
"addr":"大关苑路75-1附近",
"longitude":120.14885410,
"latitude":30.31190815
},
{
"bid":605,
"title":"三里家园自行车租赁点",
"addr":"三里家园一小区25号",
"longitude":120.18556274,
"latitude":30.30335461
},
{
"bid":606,
"title":"蟹罩坟白石巷东300米自行车租赁点",
"addr":"颜三路192附近",
"longitude":120.16233052,
"latitude":30.31293058
},
{
"bid":607,
"title":"灯塔新村自行车租赁点",
"addr":"碧桃巷79附近",
"longitude":120.16493934,
"latitude":30.31264050
},
{
"bid":608,
"title":"建中小区自行车租赁点",
"addr":"清泰街280-7附近",
"longitude":120.17526233,
"latitude":30.24977416
},
{
"bid":609,
"title":"三里家园2自行车租赁点",
"addr":"百田巷49附近",
"longitude":120.18695073,
"latitude":30.30237914
},
{
"bid":610,
"title":"万塘路文三路口自行车租赁点",
"addr":"文三路479附近",
"longitude":120.11961570,
"latitude":30.27841080
},
{
"bid":611,
"title":"秋涛北路128号自行车租赁点",
"addr":"秋涛北路128号附近",
"longitude":120.19589857,
"latitude":30.27123622
},
{
"bid":612,
"title":"蟹罩纹白石巷东自行车租赁点",
"addr":"颜三路187附近",
"longitude":120.16234455,
"latitude":30.31306758
},
{
"bid":613,
"title":"涌金饭店自行车租赁点",
"addr":"劳动路123-1附近",
"longitude":120.15786683,
"latitude":30.24629289
},
{
"bid":614,
"title":"天城路口自行车租赁点",
"addr":"范家路6附近",
"longitude":120.19562134,
"latitude":30.28944497
},
{
"bid":615,
"title":"蟹罩纹路白石巷东自行车租赁点",
"addr":"颜三路附近",
"longitude":120.16230744,
"latitude":30.31312051
},
{
"bid":616,
"title":"蟹罩纹白石巷东北角自行车租赁点",
"addr":"颜三路218附近",
"longitude":120.16054919,
"latitude":30.31324221
},
{
"bid":617,
"title":"万塘路天目山路口自行车租赁点",
"addr":"天目山路292附近",
"longitude":120.11978233,
"latitude":30.27509430
},
{
"bid":618,
"title":"万塘路塘苗路口自行车租赁点",
"addr":"万塘路42附近",
"longitude":120.11951060,
"latitude":30.27708882
},
{
"bid":619,
"title":"定安路32号自行车租赁点",
"addr":"定安路30附近",
"longitude":120.16171224,
"latitude":30.24630403
},
{
"bid":620,
"title":"环城东路22号自行车租赁点",
"addr":"环城东路22号",
"longitude":120.18169187,
"latitude":30.25278569
},
{
"bid":621,
"title":"艮山西路一二号自行车租赁点",
"addr":"艮山西路79附近",
"longitude":120.19749107,
"latitude":30.27887497
},
{
"bid":622,
"title":"清泰街建国中路口自行车租赁点",
"addr":"清泰街280-4附近",
"longitude":120.17530650,
"latitude":30.24933627
},
{
"bid":623,
"title":"西湖大道佑圣观路口自行车租赁点",
"addr":"西湖大道39附近",
"longitude":120.17128570,
"latitude":30.24786489
},
{
"bid":624,
"title":"石桥路麦苗港自行车租赁点",
"addr":"石桥路附近",
"longitude":120.18995426,
"latitude":30.29996056
},
{
"bid":625,
"title":"万塘路317号对面自行车租赁点",
"addr":"万塘路284附近",
"longitude":120.11920350,
"latitude":30.28270395
},
{
"bid":626,
"title":"嘉和路路口自行车租赁点",
"addr":"劳动路126-1附近",
"longitude":120.15802634,
"latitude":30.24583122
},
{
"bid":627,
"title":"城北体育馆自行车租赁点",
"addr":"白石路129号",
"longitude":120.16003261,
"latitude":30.31370319
},
{
"bid":628,
"title":"章家桥西自行车租赁点",
"addr":"西湖大道42附近",
"longitude":120.17320537,
"latitude":30.24831744
},
{
"bid":629,
"title":"清泰街站前路口自行车租赁点",
"addr":"清泰街建国中路与城站路中间",
"longitude":120.17567259,
"latitude":30.24925896
},
{
"bid":630,
"title":"万塘路文二路口自行车租赁点",
"addr":"万塘路327附近",
"longitude":120.11912022,
"latitude":30.28399174
},
{
"bid":631,
"title":"天目山路万塘路口自行车租赁点",
"addr":"天目山路288附近",
"longitude":120.11924126,
"latitude":30.27463978
},
{
"bid":632,
"title":"拱墅区城管办自行车租赁点",
"addr":"长征桥社区前",
"longitude":120.12779471,
"latitude":30.30137987
},
{
"bid":633,
"title":"东新路533号自行车租赁点",
"addr":"东新路404附近",
"longitude":120.17066047,
"latitude":30.31222831
},
{
"bid":634,
"title":"南山路二一八号自行车租赁点",
"addr":"南山路218号",
"longitude":120.15497737,
"latitude":30.24576463
},
{
"bid":635,
"title":"城头巷自行车租赁点",
"addr":"西湖大道37附近",
"longitude":120.17223553,
"latitude":30.24782167
},
{
"bid":636,
"title":"东新园自行车租赁点",
"addr":"香积寺东路99附近",
"longitude":120.17513889,
"latitude":30.31084884
},
{
"bid":637,
"title":"玉古路邮政所自行车租赁点",
"addr":"玉古路157附近",
"longitude":120.12212604,
"latitude":30.26560270
},
{
"bid":638,
"title":"解放路1号自行车租赁点",
"addr":"环城东路附近",
"longitude":120.18061688,
"latitude":30.25138786
},
{
"bid":639,
"title":"北新关码头自行车租赁点",
"addr":"湖墅北路99号",
"longitude":120.13393018,
"latitude":30.30682266
},
{
"bid":640,
"title":"石桥路东星自行车租赁点",
"addr":"石桥路附近",
"longitude":120.19055690,
"latitude":30.30005656
},
{
"bid":641,
"title":"东新园南门自行车租赁点",
"addr":"香积寺东路99附近",
"longitude":120.17512584,
"latitude":30.31094880
},
{
"bid":642,
"title":"浙江省家电市场自行车租赁点",
"addr":"昙花庵路245号附近",
"longitude":120.19743744,
"latitude":30.27272948
},
{
"bid":643,
"title":"四维里二弄自行车租赁点",
"addr":"西湖大道36附近",
"longitude":120.17310913,
"latitude":30.24775631
},
{
"bid":644,
"title":"惠民路定安路口自行车租赁点",
"addr":"定安路51号附近",
"longitude":120.16176548,
"latitude":30.24543520
},
{
"bid":645,
"title":"延安南路惠民路口自行车租赁点",
"addr":"延安路37-1附近",
"longitude":120.15975049,
"latitude":30.24531845
},
{
"bid":646,
"title":"翠苑五区自行车租赁点",
"addr":"万塘路341附近",
"longitude":120.11889062,
"latitude":30.28556634
},
{
"bid":647,
"title":"清泰立交桥南侧自行车租赁点",
"addr":"清泰街建国中路与城站路中间",
"longitude":120.17780082,
"latitude":30.24956186
},
{
"bid":648,
"title":"秋涛北路110号自行车租赁点",
"addr":"秋涛北路110附近",
"longitude":120.19600614,
"latitude":30.26774371
},
{
"bid":649,
"title":"紫荆路上塘路口西南角自行车租赁点",
"addr":"上塘路567附近",
"longitude":120.14220255,
"latitude":30.31144693
},
{
"bid":650,
"title":"莫干山路北大桥自行车租赁点",
"addr":"莫干山路附近",
"longitude":120.12891719,
"latitude":30.30330812
},
{
"bid":651,
"title":"青纱公园自行车租赁点",
"addr":"丽水路78附近",
"longitude":120.13491458,
"latitude":30.30789498
},
{
"bid":652,
"title":"景芳路二自行车租赁点(景芳路)",
"addr":"景芳路163号附近",
"longitude":120.19685018,
"latitude":30.26968385
},
{
"bid":653,
"title":"延安南路中信银行自行车租赁点",
"addr":"延安路88附近",
"longitude":120.16007146,
"latitude":30.24508207
},
{
"bid":654,
"title":"景芳路182号自行车租赁点",
"addr":"景芳路167附近",
"longitude":120.19691034,
"latitude":30.26960195
},
{
"bid":655,
"title":"昙花庵路2自行车租赁点",
"addr":"昙花庵路284-2附近",
"longitude":120.19794974,
"latitude":30.27288125
},
{
"bid":656,
"title":"上塘路欧尚超市自行车租赁点",
"addr":"上塘路附近",
"longitude":120.14307890,
"latitude":30.31201330
},
{
"bid":657,
"title":"石桥路麦庙港自行车租赁点",
"addr":"石桥路132附近",
"longitude":120.18975556,
"latitude":30.30184700
},
{
"bid":658,
"title":"万塘路文一路口自行车租赁点",
"addr":"万塘路371附近",
"longitude":120.11898159,
"latitude":30.28808517
},
{
"bid":659,
"title":"玉古路自行车租赁点",
"addr":"玉古路148附近",
"longitude":120.12173629,
"latitude":30.26465935
},
{
"bid":660,
"title":"范家公寓23幢东侧自行车租赁点",
"addr":"范家路95附近",
"longitude":120.19569519,
"latitude":30.29364364
},
{
"bid":661,
"title":"上绍路16号自行车租赁点",
"addr":"上绍路28附近",
"longitude":120.14686333,
"latitude":30.31332052
},
{
"bid":662,
"title":"虹桥医院自行车租赁点",
"addr":"环城东路15附近",
"longitude":120.17978558,
"latitude":30.25003946
},
{
"bid":663,
"title":"自行车租赁点(环城东路)",
"addr":"环城东路15附近",
"longitude":120.17974848,
"latitude":30.24995839
},
{
"bid":664,
"title":"上城区政府自行车租赁点",
"addr":"惠民路26-2号",
"longitude":120.16484770,
"latitude":30.24514400
},
{
"bid":665,
"title":"815古荡站自行车租赁点",
"addr":"天目山路附近",
"longitude":120.11802081,
"latitude":30.27467756
},
{
"bid":666,
"title":"双菱新村三十一幢自行车租赁点",
"addr":"双菱路59附近",
"longitude":120.19097547,
"latitude":30.25874534
},
{
"bid":667,
"title":"上绍路56号自行车租赁点",
"addr":"上绍路83附近",
"longitude":120.14775683,
"latitude":30.31367602
},
{
"bid":668,
"title":"白石巷灯塔景园12幢自行车租赁点",
"addr":"三塘中心站站房旁",
"longitude":120.16049087,
"latitude":30.31490889
},
{
"bid":669,
"title":"五十二公交站自行车租赁点",
"addr":"艮山西路112附近",
"longitude":120.19922546,
"latitude":30.27919457
},
{
"bid":670,
"title":"浙大新村1幢自行车租赁点",
"addr":"浙大路附近",
"longitude":120.12231567,
"latitude":30.26300314
},
{
"bid":671,
"title":"采荷新村11幢自行车租赁点",
"addr":"采荷路58附近",
"longitude":120.18682534,
"latitude":30.25448163
},
{
"bid":672,
"title":"紫荆路上塘路西北角自行车租赁点",
"addr":"冠军路和大浒街的交叉口附近",
"longitude":120.14077266,
"latitude":30.31161858
},
{
"bid":673,
"title":"紫荆路上塘路口西南面自行车租赁点",
"addr":"大浒街71附近",
"longitude":120.14077466,
"latitude":30.31163559
},
{
"bid":674,
"title":"采荷新村自行车租赁点",
"addr":"采荷路51附近",
"longitude":120.18688852,
"latitude":30.25443774
},
{
"bid":675,
"title":"岳庙自行车租赁点",
"addr":"龙井路1号杭州西湖风景名胜区内",
"longitude":120.13034378,
"latitude":30.25391089
},
{
"bid":676,
"title":"昙花庵路自行车租赁点",
"addr":"昙花庵路237附近",
"longitude":120.19898622,
"latitude":30.27486563
},
{
"bid":677,
"title":"自行车租赁点(古荡公交站)",
"addr":"天目山路231附近",
"longitude":120.11782245,
"latitude":30.27421741
},
{
"bid":678,
"title":"紫荆路上塘路口西南面自行车租赁点",
"addr":"大浒街82附近",
"longitude":120.14011892,
"latitude":30.31140656
},
{
"bid":679,
"title":"惠民路联华超市自行车租赁点",
"addr":"惠民路8附近",
"longitude":120.16683865,
"latitude":30.24516374
},
{
"bid":680,
"title":"浪琴翠苑自行车租赁点",
"addr":"俞家圩路135附近",
"longitude":120.12238495,
"latitude":30.29687085
},
{
"bid":681,
"title":"华光路三元地口自行车租赁点",
"addr":"华光路54附近",
"longitude":120.16200928,
"latitude":30.24445273
},
{
"bid":682,
"title":"凯旋路自行车租赁点(采荷路)",
"addr":"凯旋路81附近",
"longitude":120.18526206,
"latitude":30.25295403
},
{
"bid":683,
"title":"水亭址自行车租赁点",
"addr":"佑圣观路附近",
"longitude":120.16940628,
"latitude":30.24560853
},
{
"bid":684,
"title":"大关路口自行车租赁点",
"addr":"大关路216附近",
"longitude":120.14327738,
"latitude":30.31278653
},
{
"bid":685,
"title":"建国中路239号自行车租赁点",
"addr":"建国南路237附近",
"longitude":120.17360468,
"latitude":30.24677431
},
{
"bid":686,
"title":"采荷小区翠柳邨自行车租赁点",
"addr":"双菱路47附近",
"longitude":120.19109785,
"latitude":30.25810160
},
{
"bid":687,
"title":"长浜路45号自行车租赁点",
"addr":"香积寺东路187附近",
"longitude":120.17829315,
"latitude":30.31107563
},
{
"bid":688,
"title":"延安路紫薇路西北角自行车租赁点(延安路)",
"addr":"南宋御街171号附近",
"longitude":120.15981177,
"latitude":30.24412865
},
{
"bid":689,
"title":"凯旋路王星记扇厂自行车租赁点",
"addr":"凯旋路70附近",
"longitude":120.18544860,
"latitude":30.25283036
},
{
"bid":690,
"title":"自行车租赁点(佑圣观路)",
"addr":"水亭址4号附近",
"longitude":120.17037818,
"latitude":30.24563335
},
{
"bid":691,
"title":"钱王祠自行车租赁点",
"addr":"龙井路1号杭州西湖风景名胜区内",
"longitude":120.15389132,
"latitude":30.24425477
},
{
"bid":692,
"title":"外东山弄十六号自行车租赁点",
"addr":"外东山弄16附近",
"longitude":120.12513225,
"latitude":30.25832882
},
{
"bid":693,
"title":"采荷路四一号自行车租赁点",
"addr":"采荷路41附近",
"longitude":120.18739896,
"latitude":30.25429864
},
{
"bid":694,
"title":"采荷小区紫藕坉自行车租赁点",
"addr":"解放东路秋涛路口车站西面人行道",
"longitude":120.19277625,
"latitude":30.25982222
},
{
"bid":695,
"title":"秋涛北路七八号自行车租赁点",
"addr":"秋涛北路77附近",
"longitude":120.19562546,
"latitude":30.26394345
},
{
"bid":696,
"title":"杭州市公安局自行车租赁点(华光路)",
"addr":"华光路46附近",
"longitude":120.16191002,
"latitude":30.24407957
},
{
"bid":697,
"title":"天目山路叁叁零号自行车租赁点",
"addr":"天目山路312号附近",
"longitude":120.11716011,
"latitude":30.27468773
},
{
"bid":698,
"title":"紫金家园自行车租赁点",
"addr":"大浒街97附近",
"longitude":120.13930172,
"latitude":30.31159924
},
{
"bid":699,
"title":"劳动路12-18号自行车租赁点",
"addr":"劳动路16附近",
"longitude":120.15789712,
"latitude":30.24392612
},
{
"bid":700,
"title":"外东山弄16号自行车租赁点",
"addr":"外东山弄16附近",
"longitude":120.12509017,
"latitude":30.25812979
},
{
"bid":701,
"title":"地铁城站站D自行车租赁点",
"addr":"西湖大道5号附近",
"longitude":120.17553536,
"latitude":30.24710387
},
{
"bid":702,
"title":"上塘欧尚加油站自行车租赁点",
"addr":"上塘路583附近",
"longitude":120.14245912,
"latitude":30.31297016
},
{
"bid":703,
"title":"中河中路68号自行车租赁点",
"addr":"中河中路68号",
"longitude":120.16812050,
"latitude":30.24482817
},
{
"bid":704,
"title":"塘苗路18号自行车租赁点",
"addr":"塘苗路18号",
"longitude":120.11670807,
"latitude":30.27667012
},
{
"bid":705,
"title":"采荷路三七号自行车租赁点",
"addr":"采荷路37附近",
"longitude":120.18819918,
"latitude":30.25452200
},
{
"bid":706,
"title":"孚信苑八幢自行车租赁点",
"addr":"孚信苑八幢",
"longitude":120.17384184,
"latitude":30.31330712
},
{
"bid":707,
"title":"梅花碑自行车租赁点(佑圣观路)",
"addr":"佑圣观路1附近",
"longitude":120.17035414,
"latitude":30.24523134
},
{
"bid":708,
"title":"昙花庵路北自行车租赁点",
"addr":"昙花庵路242附近",
"longitude":120.19948964,
"latitude":30.27295757
},
{
"bid":709,
"title":"杭四中分校自行车租赁点",
"addr":"旧藩署和延安路的交叉口附近",
"longitude":120.15957611,
"latitude":30.24368425
},
{
"bid":710,
"title":"景昙路景芳二区二自行车租赁点",
"addr":"景昙路137附近",
"longitude":120.19906974,
"latitude":30.27102012
},
{
"bid":711,
"title":"体育用品市场自行车租赁点",
"addr":"中河中路55附近",
"longitude":120.16754080,
"latitude":30.24451711
},
{
"bid":712,
"title":"孔庙自行车租赁点",
"addr":"高银街吴山广场牌坊西侧",
"longitude":120.15752204,
"latitude":30.24354346
},
{
"bid":713,
"title":"自行车租赁点(天目山路)",
"addr":"天目山路附近",
"longitude":120.11670022,
"latitude":30.27467130
},
{
"bid":714,
"title":"景芳路景昙路口自行车租赁点",
"addr":"景芳路157附近",
"longitude":120.19872800,
"latitude":30.26958974
},
{
"bid":715,
"title":"采荷路35号自行车租赁点",
"addr":"采荷路35号",
"longitude":120.18848097,
"latitude":30.25435149
},
{
"bid":716,
"title":"劳动路变电所自行车租赁点",
"addr":"高银街181附近",
"longitude":120.15755918,
"latitude":30.24319955
},
{
"bid":717,
"title":"采荷小区芙蓉邨自行车租赁点",
"addr":"采东路91附近",
"longitude":120.19097266,
"latitude":30.25636254
},
{
"bid":718,
"title":"电子技术研究所自行车租赁点",
"addr":"翠柏路6附近",
"longitude":120.11873067,
"latitude":30.29301839
},
{
"bid":719,
"title":"吴山通宝城自行车租赁点",
"addr":"高银街248号附近",
"longitude":120.15813388,
"latitude":30.24311562
},
{
"bid":720,
"title":"吴山通宝城二自行车租赁点",
"addr":"延安路1号",
"longitude":120.15955309,
"latitude":30.24312325
},
{
"bid":721,
"title":"景芳一区自行车租赁点",
"addr":"景昙路103附近",
"longitude":120.19910602,
"latitude":30.26884237
},
{
"bid":722,
"title":"吴山广场西侧自行车租赁点",
"addr":"延安南路1号吴山广场附近",
"longitude":120.15912583,
"latitude":30.24297647
},
{
"bid":723,
"title":"吴山广场自行车租赁点",
"addr":"高银街175附近",
"longitude":120.15959021,
"latitude":30.24298433
},
{
"bid":724,
"title":"天目山路古翠路口自行车租赁点",
"addr":"天目山路附近",
"longitude":120.11601291,
"latitude":30.27462967
},
{
"bid":725,
"title":"高银街自行车租赁点",
"addr":"高银街165附近",
"longitude":120.16052198,
"latitude":30.24297506
},
{
"bid":726,
"title":"百安居自行车租赁点",
"addr":"上塘路623附近",
"longitude":120.14287316,
"latitude":30.31412870
},
{
"bid":727,
"title":"上塘路百安居自行车租赁点",
"addr":"上塘路600附近",
"longitude":120.14291928,
"latitude":30.31416877
},
{
"bid":728,
"title":"西湖国贸大厦自行车租赁点",
"addr":"西湖大道1附近",
"longitude":120.17503198,
"latitude":30.24580404
},
{
"bid":729,
"title":"新风社区自行车租赁点",
"addr":"机场路88号附近",
"longitude":120.19614806,
"latitude":30.29746393
},
{
"bid":730,
"title":"清泰小区自行车租赁点",
"addr":"凯旋路52附近",
"longitude":120.18528830,
"latitude":30.25098423
},
{
"bid":731,
"title":"农都市场自行车租赁点",
"addr":"德胜中路附近",
"longitude":120.18793111,
"latitude":30.30668333
},
{
"bid":732,
"title":"新风社区自行车租赁点",
"addr":"火车车站加油站右",
"longitude":120.19629443,
"latitude":30.29757914
},
{
"bid":733,
"title":"采荷路采荷路口自行车租赁点",
"addr":"采荷路71号附近",
"longitude":120.18991593,
"latitude":30.25434893
},
{
"bid":734,
"title":"莫干山路隐秀路口自行车租赁点",
"addr":"莫干山路564附近",
"longitude":120.12619273,
"latitude":30.30465847
},
{
"bid":735,
"title":"植物园自行车租赁点(杨公堤)",
"addr":"龙井路1号西湖风景名胜区内",
"longitude":120.12652875,
"latitude":30.25438486
},
{
"bid":736,
"title":"一八路终点站自行车租赁点",
"addr":"昙花庵路236附近",
"longitude":120.20097736,
"latitude":30.27296677
},
{
"bid":737,
"title":"自行车租赁点",
"addr":"采荷路35附近",
"longitude":120.18998313,
"latitude":30.25422005
},
{
"bid":738,
"title":"锦昌文华苑自行车租赁点",
"addr":"丽水路146号锦昌文华(紫荆家园社区卫生服务站东南)附近",
"longitude":120.13574639,
"latitude":30.31170375
},
{
"bid":739,
"title":"德胜路石桥路口北自行车租赁点",
"addr":"德胜快速路附近",
"longitude":120.18769639,
"latitude":30.30748683
},
{
"bid":740,
"title":"古翠路天目山路西北角自行车租赁点",
"addr":"天目山路259附近",
"longitude":120.11520436,
"latitude":30.27484493
},
{
"bid":741,
"title":"中河中路河坊街路口自行车租赁点",
"addr":"中河中路43附近",
"longitude":120.16749378,
"latitude":30.24310912
},
{
"bid":742,
"title":"解放东路凯旋东路口自行车租赁点",
"addr":"凯旋路44附近",
"longitude":120.18525426,
"latitude":30.25028222
},
{
"bid":743,
"title":"景芳路二自行车租赁点(秋涛北路一弄)",
"addr":"景芳路166-7附近",
"longitude":120.20032100,
"latitude":30.26962511
},
{
"bid":744,
"title":"公交公交一公司站自行车租赁点",
"addr":"华星路123附近",
"longitude":120.11475501,
"latitude":30.28093095
},
{
"bid":745,
"title":"采荷公园自行车租赁点",
"addr":"双菱路34附近",
"longitude":120.19330287,
"latitude":30.25721530
},
{
"bid":746,
"title":"自来水公司自行车租赁点",
"addr":"清江路13号-自来水公司大门往东第五个门面",
"longitude":120.18294682,
"latitude":30.24868326
},
{
"bid":747,
"title":"庆隆路自行车租赁点",
"addr":"庆隆路17附近",
"longitude":120.11824954,
"latitude":30.29493770
},
{
"bid":748,
"title":"杨公堤北山街口自行车租赁点",
"addr":"杨公堤和灵隐路的交叉口附近",
"longitude":120.12549036,
"latitude":30.25470056
},
{
"bid":749,
"title":"河坊街四七二号自行车租赁点",
"addr":"河坊街472号",
"longitude":120.15589036,
"latitude":30.24203957
},
{
"bid":750,
"title":"景昙路凤起路口二自行车租赁点",
"addr":"凤起东路143附近",
"longitude":120.19949719,
"latitude":30.26657217
},
{
"bid":751,
"title":"河坊街自行车租赁点",
"addr":"南山路49附近",
"longitude":120.15753822,
"latitude":30.24194761
},
{
"bid":752,
"title":"采荷二小南自行车租赁点",
"addr":"解放东路488附近",
"longitude":120.18653383,
"latitude":30.25078342
},
{
"bid":753,
"title":"机场路新风路口自行车租赁点",
"addr":"机场路附近",
"longitude":120.19634144,
"latitude":30.29889907
},
{
"bid":754,
"title":"江城路881号自行车租赁点",
"addr":"江城路879-881附近",
"longitude":120.17553354,
"latitude":30.24492303
},
{
"bid":755,
"title":"自行车租赁点(河坊街四宜路口)",
"addr":"河坊街419附近",
"longitude":120.15697356,
"latitude":30.24188957
},
{
"bid":756,
"title":"河坊街四六一-四六三号前自行车租赁点",
"addr":"南山路174-1号附近",
"longitude":120.15558949,
"latitude":30.24191103
},
{
"bid":757,
"title":"颜家村自行车租赁点",
"addr":"东新路610号",
"longitude":120.17006535,
"latitude":30.31636067
},
{
"bid":758,
"title":"古翠路文二西路西南角自行车租赁点",
"addr":"古翠路附近",
"longitude":120.11458144,
"latitude":30.28390550
},
{
"bid":759,
"title":"荷花池头口自行车租赁点",
"addr":"河坊街534-536附近",
"longitude":120.15473799,
"latitude":30.24193048
},
{
"bid":760,
"title":"锦昌文华苑九十八号自行车租赁点",
"addr":"锦鸿路和金华路的交叉口附近",
"longitude":120.13765322,
"latitude":30.31328746
},
{
"bid":761,
"title":"赵伍路179号自行车租赁点",
"addr":"信义坊商业步行街赵伍路153号",
"longitude":120.12775713,
"latitude":30.30723514
},
{
"bid":762,
"title":"柳浪闻莺自行车租赁点",
"addr":"南山路87号柳浪闻莺公园内",
"longitude":120.15333389,
"latitude":30.24185494
},
{
"bid":763,
"title":"隐秀路418号自行车租赁点",
"addr":"隐秀路411附近",
"longitude":120.12031737,
"latitude":30.29941331
},
{
"bid":764,
"title":"景芳路凤起路口自行车租赁点",
"addr":"景昙路52-54附近",
"longitude":120.19956645,
"latitude":30.26558236
},
{
"bid":765,
"title":"小河直街自行车租赁点",
"addr":"小河路138号",
"longitude":120.13042729,
"latitude":30.30947941
},
{
"bid":766,
"title":"太平门直街自行车租赁点(太平门直街)",
"addr":"太平门直街317附近",
"longitude":120.19829946,
"latitude":30.26288769
},
{
"bid":767,
"title":"水印康庭路口自行车租赁点",
"addr":"白石巷附近",
"longitude":120.16054477,
"latitude":30.31810559
},
{
"bid":768,
"title":"清泰南苑二幢自行车租赁点",
"addr":"海潮路附近",
"longitude":120.18185581,
"latitude":30.24717942
},
{
"bid":769,
"title":"商教苑北大门东自行车租赁点",
"addr":"解放路附近",
"longitude":120.18681968,
"latitude":30.25025896
},
{
"bid":770,
"title":"三星家园自行车租赁点",
"addr":"景昙路55附近",
"longitude":120.19944420,
"latitude":30.26489024
},
{
"bid":771,
"title":"小河路长征中学自行车租赁点",
"addr":"莫干山路572附近",
"longitude":120.12583380,
"latitude":30.30602086
},
{
"bid":772,
"title":"翠苑三区四十四幢自行车租赁点",
"addr":"翠柏路11附近",
"longitude":120.11618073,
"latitude":30.29223604
},
{
"bid":773,
"title":"景芳路三自行车租赁点",
"addr":"景芳路149附近",
"longitude":120.20140469,
"latitude":30.26966669
},
{
"bid":774,
"title":"中河中路高银街口自行车租赁点",
"addr":"中河中路35附近",
"longitude":120.16744170,
"latitude":30.24211610
},
{
"bid":775,
"title":"重工路白石路自行车租赁点",
"addr":"西文街附近",
"longitude":120.16123881,
"latitude":30.31833985
},
{
"bid":776,
"title":"石桥路农科院自行车租赁点",
"addr":"德胜快速路出口附近",
"longitude":120.18798809,
"latitude":30.30886516
},
{
"bid":777,
"title":"自行车出租",
"addr":"林风眠旧居附近",
"longitude":120.12337560,
"latitude":30.25550498
},
{
"bid":778,
"title":"清江路76号自行车租赁点",
"addr":"清江路76附近",
"longitude":120.18378227,
"latitude":30.24795181
},
{
"bid":779,
"title":"公交翠苑五区站自行车租赁点",
"addr":"万塘路23附近",
"longitude":120.11422353,
"latitude":30.28680889
},
{
"bid":780,
"title":"严加弄自行车租赁点",
"addr":"新塘路316-1附近",
"longitude":120.20311335,
"latitude":30.27572457
},
{
"bid":781,
"title":"严家弄站自行车租赁点",
"addr":"新塘路221附近",
"longitude":120.20312137,
"latitude":30.27576857
},
{
"bid":782,
"title":"水印康庭一幢自行车租赁点",
"addr":"西文街方圆金街商业中心2幢附近",
"longitude":120.16479444,
"latitude":30.31819853
},
{
"bid":783,
"title":"隐秀路417号杭广电大自行车租赁点",
"addr":"隐秀路417号",
"longitude":120.11935541,
"latitude":30.29923833
},
{
"bid":784,
"title":"长征桥社区42号自行车租赁点",
"addr":"古运路146附近",
"longitude":120.12825316,
"latitude":30.30877160
},
{
"bid":785,
"title":"四宜路师小自行车租赁点",
"addr":"四宜路56附近",
"longitude":120.15742398,
"latitude":30.24074348
},
{
"bid":786,
"title":"农科院点自行车租赁点",
"addr":"德胜中路310附近",
"longitude":120.18806927,
"latitude":30.30932825
},
{
"bid":787,
"title":"水印康庭一号楼自行车租赁点",
"addr":"三塘中心站站房旁",
"longitude":120.16514547,
"latitude":30.31848715
},
{
"bid":788,
"title":"五安路口自行车租赁点",
"addr":"采荷路4附近",
"longitude":120.19349357,
"latitude":30.25495080
},
{
"bid":789,
"title":"清波街二八号自行车租赁点",
"addr":"清波街28附近",
"longitude":120.15630269,
"latitude":30.24059043
},
{
"bid":790,
"title":"清江路自行车租赁点",
"addr":"清江路87附近",
"longitude":120.18553623,
"latitude":30.24826588
},
{
"bid":791,
"title":"登云路新昌路口自行车租赁点",
"addr":"衢州路北侧金华路口以东",
"longitude":120.13999722,
"latitude":30.31576682
},
{
"bid":792,
"title":"新塘路202号自行车租赁点",
"addr":"新塘路151附近",
"longitude":120.20282005,
"latitude":30.27080162
},
{
"bid":793,
"title":"四宜路清波街口自行车租赁点",
"addr":"府前街63附近",
"longitude":120.15762059,
"latitude":30.24041787
},
{
"bid":794,
"title":"新塘路二十二号自行车租赁点",
"addr":"新塘路22号",
"longitude":120.20294534,
"latitude":30.27099278
},
{
"bid":795,
"title":"丽水路136号对面自行车租赁点",
"addr":"丽水路137附近",
"longitude":120.13488904,
"latitude":30.31357225
},
{
"bid":796,
"title":"清波街三一五号自行车租赁点",
"addr":"清波街5附近",
"longitude":120.15722443,
"latitude":30.24035714
},
{
"bid":797,
"title":"24路古荡站自行车租赁点",
"addr":"古荡站后面公园河边",
"longitude":120.11261135,
"latitude":30.27841843
},
{
"bid":798,
"title":"景芳五区路口自行车租赁点",
"addr":"新塘路222-224附近",
"longitude":120.20323600,
"latitude":30.27144314
},
{
"bid":799,
"title":"中河中路鼓楼堂自行车租赁点",
"addr":"大井巷和打铜巷的交叉口附近",
"longitude":120.16725023,
"latitude":30.24096382
},
{
"bid":800,
"title":"古翠路文一西路西北角自行车租赁点",
"addr":"文一西路和古翠路的交叉口附近",
"longitude":120.11402890,
"latitude":30.29012538
},
{
"bid":801,
"title":"东新园北门自行车租赁点",
"addr":"西文街50附近",
"longitude":120.17440622,
"latitude":30.31690272
},
{
"bid":802,
"title":"自行车租赁点(德胜中路)",
"addr":"石桥路198号杭州郡富国际大酒店附近",
"longitude":120.18911117,
"latitude":30.30927203
},
{
"bid":803,
"title":"太平门直街景昙路口自行车租赁点",
"addr":"景昙路24附近",
"longitude":120.20004686,
"latitude":30.26303830
},
{
"bid":804,
"title":"公交善贤坝站自行车租赁点",
"addr":"沈半路115号",
"longitude":120.15528710,
"latitude":30.31945071
},
{
"bid":805,
"title":"赵伍路105号自行车租赁点",
"addr":"赵伍路111附近",
"longitude":120.12622350,
"latitude":30.30829207
},
{
"bid":806,
"title":"自行车租赁点(景昙路)",
"addr":"景昙路16附近",
"longitude":120.19978026,
"latitude":30.26222897
},
{
"bid":807,
"title":"采东路九号自行车租赁点",
"addr":"采东路4附近",
"longitude":120.19701958,
"latitude":30.25798614
},
{
"bid":808,
"title":"采荷路五九路公交终点站自行车租赁点",
"addr":"采荷路5附近",
"longitude":120.19375232,
"latitude":30.25419028
},
{
"bid":809,
"title":"弄口五组自行车租赁点",
"addr":"德胜快速路出口和德胜快速路的交叉口附近",
"longitude":120.19219879,
"latitude":30.30704547
},
{
"bid":810,
"title":"植物园自行车租赁点(玉古路)",
"addr":"玉泉路3附近",
"longitude":120.12011052,
"latitude":30.25716924
},
{
"bid":811,
"title":"沈家路东新路东南角自行车租赁点",
"addr":"西文街22号附近",
"longitude":120.17118755,
"latitude":30.31816455
},
{
"bid":812,
"title":"断河头九五号自行车租赁点",
"addr":"建国南路93附近",
"longitude":120.17139556,
"latitude":30.24145657
},
{
"bid":813,
"title":"勤俭桥自行车租赁点",
"addr":"和睦路428附近",
"longitude":120.12911503,
"latitude":30.31075349
},
{
"bid":814,
"title":"景芳五区一自行车租赁点",
"addr":"昙花庵路189附近",
"longitude":120.20407891,
"latitude":30.27279219
},
{
"bid":815,
"title":"商教苑社区自行车租赁点",
"addr":"杭海路13附近",
"longitude":120.18725304,
"latitude":30.24850585
},
{
"bid":816,
"title":"白石路三百八十号自行车租赁点",
"addr":"白石路附近",
"longitude":120.16163588,
"latitude":30.31967442
},
{
"bid":817,
"title":"新风路三二零支五至三二四号自行车租赁点",
"addr":"新风路322附近",
"longitude":120.20068669,
"latitude":30.29652092
},
{
"bid":818,
"title":"丽水路登云路口自行车租赁点",
"addr":"丽水路143附近",
"longitude":120.13472154,
"latitude":30.31440090
},
{
"bid":819,
"title":"长浜路346号自行车租赁点",
"addr":"长浜路366附近",
"longitude":120.17839603,
"latitude":30.31621418
},
{
"bid":820,
"title":"新湖苑十四幢自行车租赁点",
"addr":"香积寺东路47-49附近",
"longitude":120.17279634,
"latitude":30.31813256
},
{
"bid":821,
"title":"莫干山路小河路口自行车租赁点",
"addr":"莫干山路578附近",
"longitude":120.12367289,
"latitude":30.30695316
},
{
"bid":822,
"title":"景芳路新塘路口二自行车租赁点",
"addr":"新塘路80号",
"longitude":120.20380752,
"latitude":30.26968910
},
{
"bid":823,
"title":"新塘路皋塘村汽配城自行车租赁点",
"addr":"新塘路附近",
"longitude":120.20491283,
"latitude":30.28562907
},
{
"bid":824,
"title":"解放东路四季青儿童精装市场自行车租赁点",
"addr":"杭海路3附近",
"longitude":120.19147948,
"latitude":30.25095881
},
{
"bid":825,
"title":"沈家路99号自行车租赁点",
"addr":"西文街113附近",
"longitude":120.17322459,
"latitude":30.31835633
},
{
"bid":826,
"title":"解放东路(北)自行车租赁点",
"addr":"解放东路194附近",
"longitude":120.19148751,
"latitude":30.25089783
},
{
"bid":827,
"title":"河坊街一二号自行车租赁点",
"addr":"河坊街10附近",
"longitude":120.17314478,
"latitude":30.24121286
},
{
"bid":828,
"title":"望江路胡雪岩故居自行车租赁点",
"addr":"望江路237附近",
"longitude":120.16805972,
"latitude":30.24001741
},
{
"bid":829,
"title":"采荷路秋涛路口自行车租赁点",
"addr":"采荷路1-2附近",
"longitude":120.19503472,
"latitude":30.25415934
},
{
"bid":830,
"title":"鼓楼公交站自行车租赁点",
"addr":"中山南路468附近",
"longitude":120.16700660,
"latitude":30.23971445
},
{
"bid":831,
"title":"河坊街东口自行车租赁点",
"addr":"河坊街9附近",
"longitude":120.17300237,
"latitude":30.24102061
},
{
"bid":832,
"title":"沈家路58号自行车租赁点",
"addr":"沈家路68附近",
"longitude":120.17493067,
"latitude":30.31804655
},
{
"bid":833,
"title":"望江路220号自行车租赁点",
"addr":"望江路220号",
"longitude":120.16947094,
"latitude":30.24000007
},
{
"bid":834,
"title":"世纪新城自行车租赁点",
"addr":"通普路39附近",
"longitude":120.11156081,
"latitude":30.28680378
},
{
"bid":835,
"title":"建国南路8号自行车租赁点",
"addr":"建国南路10附近",
"longitude":120.17059226,
"latitude":30.24023715
},
{
"bid":836,
"title":"解放东路(南)自行车租赁点",
"addr":"杭海路88202号附近",
"longitude":120.19157879,
"latitude":30.25042302
},
{
"bid":837,
"title":"上塘路舟山路口自行车租赁点",
"addr":"上塘路756附近",
"longitude":120.14248373,
"latitude":30.31844751
},
{
"bid":838,
"title":"胡雪岩故居自行车租赁点",
"addr":"望江路172附近",
"longitude":120.17022820,
"latitude":30.24000949
},
{
"bid":839,
"title":"树人大学大门左侧自行车租赁点",
"addr":"舟山东路5附近",
"longitude":120.15426801,
"latitude":30.32070169
},
{
"bid":840,
"title":"沈家路沈家村自行车租赁点",
"addr":"西文街62附近",
"longitude":120.17488752,
"latitude":30.31835243
},
{
"bid":841,
"title":"莫干山路物美超市自行车租赁点",
"addr":"莫干山路528附近",
"longitude":120.12254545,
"latitude":30.30688688
},
{
"bid":842,
"title":"中纺中心自行车租赁点",
"addr":"杭海路147-149附近",
"longitude":120.19239495,
"latitude":30.25100632
},
{
"bid":843,
"title":"自行车租赁点(舟山东路)",
"addr":"舟山东路19附近",
"longitude":120.15377156,
"latitude":30.32070279
},
{
"bid":844,
"title":"赵伍路登云路口自行车租赁点",
"addr":"打铁弄121附近",
"longitude":120.12481926,
"latitude":30.30900827
},
{
"bid":845,
"title":"昙花庵路景东路口东南角自行车租赁点",
"addr":"昙花庵路151附近",
"longitude":120.20542410,
"latitude":30.27276703
},
{
"bid":846,
"title":"四宜路13-15号自行车租赁点",
"addr":"四宜路17附近",
"longitude":120.15732888,
"latitude":30.23863446
},
{
"bid":847,
"title":"八路鼓楼终点站自行车租赁点",
"addr":"中山南路11附近",
"longitude":120.16683011,
"latitude":30.23928715
},
{
"bid":848,
"title":"拱墅市政所自行车租赁点",
"addr":"莫干山路839附近",
"longitude":120.12089508,
"latitude":30.30526125
},
{
"bid":849,
"title":"沈家路99号自行车租赁点",
"addr":"西文街附近",
"longitude":120.17465081,
"latitude":30.31849997
},
{
"bid":850,
"title":"十五奎巷九九一号自行车租赁点",
"addr":"十五奎巷991号",
"longitude":120.16422235,
"latitude":30.23890228
},
{
"bid":851,
"title":"沈家路58号自行车租赁点",
"addr":"西文街110附近",
"longitude":120.17626762,
"latitude":30.31802103
},
{
"bid":852,
"title":"四牌楼17号自行车租赁点",
"addr":"十五奎巷65附近",
"longitude":120.16416920,
"latitude":30.23885218
},
{
"bid":853,
"title":"益乐村自行车租赁点",
"addr":"益乐路16附近",
"longitude":120.11047353,
"latitude":30.28016767
},
{
"bid":854,
"title":"木兰山茶园自行车租赁点",
"addr":"玉古路附近",
"longitude":120.12006562,
"latitude":30.25492838
},
{
"bid":855,
"title":"新风路天城路东南角自行车租赁点",
"addr":"新风路天城路东南角",
"longitude":120.20383066,
"latitude":30.29296380
},
{
"bid":856,
"title":"四宜路一三-一号自行车租赁点",
"addr":"四宜路13附近",
"longitude":120.15734695,
"latitude":30.23846650
},
{
"bid":857,
"title":"海潮路九十支三号自行车租赁点",
"addr":"海潮路92附近",
"longitude":120.18036484,
"latitude":30.24309104
},
{
"bid":858,
"title":"中山南路四五三号自行车租赁点",
"addr":"中山南路453号",
"longitude":120.16635170,
"latitude":30.23901327
},
{
"bid":859,
"title":"火车东站东大门自行车租赁点",
"addr":"艮山西路和皋塘三路的交叉口附近",
"longitude":120.20639264,
"latitude":30.28135749
},
{
"bid":860,
"title":"漾河弄2自行车租赁点",
"addr":"白石巷398附近",
"longitude":120.16273405,
"latitude":30.32100830
},
{
"bid":861,
"title":"艮山西路汽车东站自行车租赁点",
"addr":"艮山西路和皋塘三路的交叉口附近",
"longitude":120.20642271,
"latitude":30.28139453
},
{
"bid":862,
"title":"隐秀路382号庆隆苑25幢自行车租赁点",
"addr":"隐秀路555附近",
"longitude":120.11518133,
"latitude":30.29831647
},
{
"bid":863,
"title":"解放东路四季青儿童精装市场自行车租赁点",
"addr":"杭海路102附近",
"longitude":120.19283015,
"latitude":30.25066006
},
{
"bid":864,
"title":"自行车租赁点(景昙路)",
"addr":"景昙路4附近",
"longitude":120.19980564,
"latitude":30.25841633
},
{
"bid":865,
"title":"景昙路东自行车租赁点",
"addr":"景昙路1附近",
"longitude":120.19989586,
"latitude":30.25845046
},